     2.11           OBSERVATION DATA    G (GPS)             RINEX VERSION / TYPE
teqc  2013Mar15                         20140109 02:03:15UTCPGM / RUN BY / DATE
Linux 2.4.20-8|Pentium IV|gcc -static|Linux|486/DX+         COMMENT
   0.033      (antenna height)                              COMMENT
 +55.21279000 (latitude)                                    COMMENT
  -1.68549700 (longitude)                                   COMMENT
0144.425      (elevation)                                   COMMENT
BIT 2 OF LLI FLAGS DATA COLLECTED UNDER A/S CONDITION       COMMENT
MORP (COGO code)                                            COMMENT
MORP                                                        MARKER NAME
13299S001                                                   MARKER NUMBER
Matt King           NCL                                     OBSERVER / AGENCY
4843K3347           TRIMBLE NETR8       4.19                REC # / TYPE / VERS
221                 AOAD/M_T        NONE                    ANT # / TYPE
  3645667.8584  -107277.2886  5215053.4919                  APPROX POSITION XYZ
        0.0330        0.0000        0.0000                  ANTENNA: DELTA H/E/N
     1     1                                                WAVELENGTH FACT L1/2
     8    C1    P1    C2    P2    L1    L2    S1    S2      # / TYPES OF OBSERV
    30.0000                                                 INTERVAL
    16                                                      LEAP SECONDS
Forced Modulo Decimation to 30 seconds                      COMMENT
 SNR is mapped to RINEX snr flag value [0-9]                COMMENT
  L1 & L2: min(max(int(snr_dBHz/6), 0), 9)                  COMMENT
  2014     1     8     0     0    0.0000000     GPS         TIME OF FIRST OBS
                                                            END OF HEADER
 14  1  8  0  0  0.0000000  0  9G04G02G14G12G29G32G24G31G25
  23429115.094                                    23429121.902   123121002.677 6
  95938341.89543        41.800          22.200
  23684634.297                                    23684639.289   124463602.671 7
  96984649.85244        42.300          25.700
  21553043.008                                    21553048.820   113261996.834 7
  88256128.66645        47.300          32.000
  20579678.055                    20579683.285    20579683.398   108146977.992 8
  84270402.782 8        51.200          49.600
  22569126.297                    22569132.758    22569132.871   118601507.550 7
  92416844.880 7        45.500          42.400
  25049421.117                                                   131635596.145 5
                        30.500
  23311228.016                    23311237.348                   122501320.071 7
  95455647.473 7        42.500          43.700
  23240990.891                    23240996.531    23240996.293   122132231.677 7
  95167997.204 6        42.100          41.400
  20370605.422                    20370613.758                   107048259.356 8
  83414287.553 8        51.700          49.800
 14  1  8  0  0 30.0000000  0  9G04G02G14G12G29G32G24G31G25
  23430588.422                                    23430595.523   123128745.510 7
  95944375.26543        42.000          22.200
  23672604.742                                    23672609.500   124400388.292 6
  96935391.90144        41.700          26.400
  21559240.500                                    21559246.020   113294561.362 7
  88281503.60545        47.100          32.500
  20588761.000                    20588766.582    20588766.461   108194709.950 8
  84307596.510 8        51.400          49.400
  22549586.406                    22549593.570    22549593.391   118498825.954 7
  92336833.280 7        45.000          42.100
  25056113.828                                                   131670761.463 4
                        25.300
  23330775.266                    23330784.832                   122604044.127 6
  95535692.155 7        41.500          43.400
  23223143.570                    23223149.504    23223149.383   122038445.251 6
  95094916.874 7        41.700          42.100
  20364524.398                    20364532.852                   107016303.680 8
  83389387.023 8        51.500          50.500
 14  1  8  0  1  0.0000000  0  9G04G02G14G12G29G32G24G31G25
  23432181.992                                    23432189.504   123137119.634 7
  95950900.55743        42.200          22.000
  23660645.461                                    23660649.984   124337540.776 6
  96886419.85244        41.500          25.300
  21565548.086                                    21565553.840   113327709.105 7
  88307332.97445        47.000          32.700
  20597916.742                    20597922.441    20597922.262   108242824.255 8
  84345088.174 8        51.600          49.900
  22530099.750                    22530106.680    22530106.852   118396424.004 7
  92257039.576 7        45.400          42.400
  25062900.203                                                   131706415.289 4
                        27.600
  23350360.883                    23350370.508                   122706964.785 7
  95615890.038 7        42.200          43.200
  23205331.875                    23205337.047    23205337.102   121944840.128 7
  95021977.813 6        42.600          41.600
  20358525.461                    20358533.621                   106984778.517 8
  83364821.958 8        51.000          49.800
 14  1  8  0  1 30.0000000  0  9G04G02G14G12G29G32G24G31G25
  23433895.742                                    23433903.078   123146125.547 7
  95957918.12443        42.600          22.800
  23648756.961                                    23648760.957   124275062.985 7
  96837735.90344        42.100          26.200
  21571966.734                                    21571972.840   113361439.647 7
  88333616.48045        47.200          32.700
  20607145.406                    20607151.340    20607151.336   108291320.287 8
  84382877.278 8        51.500          49.700
  22510666.398                    22510673.914    22510673.852   118294304.501 7
  92177465.985 7        44.600          42.000
  25069775.555                                                   131742556.738 5
                        30.100
  23369982.789                    23369992.590                   122810080.807 6
  95696240.146 7        41.800          44.000
  23187554.047                    23187559.453    23187559.625   121851418.549 7
  94949181.776 6        42.100          41.700
  20352608.703                    20352616.922                   106953684.823 8
  83340593.107 8        51.600          50.400
 14  1  8  0  2  0.0000000  0  9G04G02G14G12G29G32G24G31G25
  23435730.297                                    23435737.223   123155761.482 7
  95965426.64243        42.900          22.300
  23636938.172                                    23636942.285   124212955.713 7
  96789340.67044        42.200          26.000
  21578495.930                                    21578501.918   113395750.519 7
  88360352.17745        47.600          32.700
  20616445.742                    20616451.324    20616451.262   108340195.465 8
  84420961.833 8        51.300          49.500
  22491288.484                    22491295.590    22491295.410   118192468.600 7
  92098113.371 6        45.000          41.900
  25076745.875                                                   131779182.619 5
                        30.100
  23389642.195                    23389652.055                   122913389.698 7
  95776740.538 7        42.200          43.500
  23169811.266                    23169816.789    23169817.020   121758180.851 7
  94876529.028 6        42.300          41.600
  20346773.445                    20346782.191                   106923021.542 8
  83316699.641 8        51.600          49.600
 14  1  8  0  2 30.0000000  0  9G04G02G14G12G29G32G24G31G25
  23437683.508                                    23437690.668   123166028.353 7
  95973426.79343        42.800          23.000
  23625190.484                                    23625194.539   124151222.432 7
  96741236.84944        42.000          26.200
  21585135.430                                    21585141.477   113430641.389 7
  88387539.83145        47.900          31.900
  20625818.688                    20625824.738    20625824.617   108389449.198 8
  84459341.361 8        51.600          49.700
  22471964.391                    22471971.203    22471970.848   118090919.421 7
  92018984.193 6        45.300          41.800
  25083808.391                                                   131816292.265 4
                        29.600
  23409337.031                    23409347.594                   123016890.528 6
  95857390.519 7        41.800          43.600
  23152104.508                    23152110.090    23152109.969   121665129.934 7
  94804021.828 7        43.000          42.200
  20341020.727                    20341029.180                   106892790.017 8
  83293142.605 8        51.100          51.100
 14  1  8  0  3  0.0000000  0  9G04G02G14G12G29G32G24G31G25
  23439757.875                                    23439764.801   123176927.618 7
  95981919.73743        42.800          22.600
  23613514.953                                    23613518.539   124089866.825 6
  96693427.36744        41.000          25.800
  21591885.492                                    21591891.480   113466112.795 7
  88415179.85545        47.400          32.700
  20635263.195                    20635268.895    20635268.598   108439081.374 8
  84498015.778 8        51.900          49.400
  22452694.633                    22452702.266    22452702.145   117989660.877 7
  91940081.475 7        44.600          42.100
  25090961.063                                                   131853885.495 4
                        26.800
  23429069.656                    23429079.809                   123120583.028 6
  95938189.836 7        41.300          44.000
  23134433.508                    23134439.793    23134439.613   121572269.351 7
  94731662.934 6        42.300          41.700
  20335350.070                    20335358.992                   106862992.118 8
  83269923.470 8        51.600          50.600
 14  1  8  0  3 30.0000000  0  9G04G02G14G12G29G32G24G31G25
  23441951.820                                    23441958.512   123188455.439 7
  95990902.44743        42.400          22.300
  23601910.750                                    23601914.805   124028887.554 6
  96645911.11044        40.900          26.700
  21598745.047                                    21598750.859   113502159.500 7
  88443268.17845        47.900          32.500
  20644778.820                    20644784.871    20644784.750   108489087.585 8
  84536981.650 8        51.700          49.100
  22433481.398                    22433488.094    22433488.324   117888691.699 7
  91861404.227 6        45.200          41.600
  25098206.836                                                   131891957.139 5
                        30.500
  23448836.820                    23448847.500                   123224462.213 6
  96019134.624 7        41.600          43.300
  23116799.336                    23116804.625    23116804.270   121479597.257 7
  94659450.914 7        43.400          42.000
  20329761.734                    20329770.539                   106833624.450 8
  83247039.568 8        51.300          51.000
 14  1  8  0  4  0.0000000  0  9G04G02G14G12G29G32G24G31G25
  23444264.563                                    23444271.371   123200612.635 7
  96000375.60943        43.300          22.300
  23590379.156                                    23590383.328   123968288.122 6
  96598690.83944        41.200          26.400
  21605714.086                                    21605720.133   113538781.574 7
  88471804.84345        47.700          31.600
  20654366.344                    20654372.277    20654372.098   108539467.584 8
  84576238.786 8        51.700          48.800
  22414323.219                    22414330.207    22414330.027   117788015.306 7
  91782955.120 7        45.200          42.000
  25105541.227                                                   131930506.492 4
                        29.600
  23468640.297                    23468649.746                   123328527.713 7
  96100224.598 7        42.300          43.400
  23099200.680                    23099206.027    23099206.023   121387116.461 7
  94587387.964 6        43.200          41.700
  20324255.406                    20324264.797                   106804688.527 8
  83224492.092 8        52.300          49.400
 14  1  8  0  4 30.0000000  0  9G04G02G14G12G29G32G24G31G25
  23446698.227                                    23446704.742   123213400.995 7
  96010340.56843        43.000          21.700
  23578920.016                                    23578924.480   123908072.761 6
  96551769.83544        40.600          26.000
  21612792.492                                    21612798.715   113575979.438 7
  88500790.15445        47.800          32.100
  20664024.672                    20664030.430    20664029.957   108590221.842 8
  84615787.552 8        51.000          48.900
  22395221.352                    22395228.809    22395229.039   117687636.041 7
  91704737.556 6        44.500          41.600
  25112969.516                                                   131969533.907 5
                        31.000
  23488479.055                    23488488.738                   123432779.822 6
  96181459.962 7        41.700          42.600
  23081638.344                    23081644.219    23081644.098   121294830.699 7
  94515476.983 7        42.000          42.100
  20318831.820                    20318840.859                   106776186.744 8
  83202282.916 8        51.200          50.500
 14  1  8  0  5  0.0000000  0  9G04G02G14G12G29G32G24G31G25
  23449250.406                                    23449258.445   123226817.618 7
  96020795.08543        42.800          21.500
  23567533.727                                    23567538.426   123848241.179 6
  96505147.87444        40.900          25.900
  21619980.125                                    21619985.762   113613749.992 7
  88530221.72645        47.900          33.000
  20673753.406                    20673759.223    20673758.926   108641346.504 8
  84655624.949 8        51.300          49.600
  22376176.930                    22376184.270    22376184.090   117587554.040 7
  91626751.614 6        44.600          41.700
  25120484.820                                                   132009035.149 5
                        30.300
  23508352.234                    23508362.152                   123537214.521 6
  96262837.626 7        41.800          43.000
  23064113.953                    23064120.004    23064120.000   121202739.620 7
  94443717.702 7        43.200          42.100
  20313490.227                    20313499.207                   106748116.938 8
  83180410.337 8        51.900          50.400
 14  1  8  0  5 30.0000000  0  9G04G02G14G12G29G32G24G31G25
  23451923.570                                    23451931.492   123240864.104 7
  96031740.36043        42.000          20.900
  23556222.680                                    23556227.203   123788797.394 6
  96458828.07644        40.600          26.000
  21627276.500                                    21627282.605   113652093.237 8
  88560099.55345        48.000          32.200
  20683552.375                    20683558.191    20683557.895   108692841.904 8
  84695751.231 8        51.800          48.600
  22357188.555                    22357195.777    22357195.480   117487772.878 7
  91549000.090 7        44.500          42.300
  25128093.039                                                   132049010.172 4
                        29.900
  23528259.773                    23528270.512                   123641831.709 7
  96344357.489 7        42.000          43.000
  23046627.523                    23046633.574    23046633.336   121110846.495 7
  94372112.671 7        43.300          42.100
  20308231.414                    20308240.160                   106720481.006 8
  83158875.847 8        52.200          50.400
 14  1  8  0  6  0.0000000  0  9G04G02G14G12G29G32G24G31G25
  23454716.047                                    23454723.500   123255540.096 7
  96043176.17943        42.200          20.600
  23544985.492                                    23544990.016   123729743.775 6
  96412812.28544        40.500          25.800
  21634681.938                                    21634687.633   113691007.463 8
  88590422.28645        48.000          32.000
  20693422.227                    20693427.516    20693427.570   108744706.563 8
  84736165.248 8        51.400          49.300
  22338259.086                    22338265.723    22338265.602   117388294.979 7
  91471484.882 7        45.000          42.100
  25135790.227                                                   132089457.251 5
                        31.000
  23548202.344                    23548212.965                   123746630.241 7
  96426018.669 7        42.600          42.700
  23029179.813                    23029185.102    23029184.922   121019153.352 7
  94300663.471 7        43.800          42.100
  20303055.148                    20303063.953                   106693279.399 8
  83137679.787 8        51.500          50.400
 14  1  8  0  6 30.0000000  0  9G04G02G14G12G29G32G24G31G25
  23457628.945                                    23457636.633   123270844.765 6
  96055101.87743        41.600          20.600
  23533821.680                                    23533826.262   123671081.961 6
  96367101.81344        41.400          26.000
  21642195.336                                    21642200.973   113730491.390 8
  88621188.95145        48.000          32.200
  20703361.406                    20703367.164    20703366.926   108796939.024 8
  84776865.863 8        50.800          49.100
  22319386.781                    22319394.121    22319393.824   117289122.017 7
  91394207.283 7        44.900          42.300
  25143577.023                                                   132130373.984 5
                        31.000
  23568178.719                    23568189.340                   123851607.345 7
  96507818.980 7        42.400          43.400
  23011768.414                    23011773.996    23011773.992   120927661.425 7
  94229371.058 6        43.900          41.700
  20297961.195                    20297970.176                   106666511.788 8
  83116821.913 8        52.300          50.000
 14  1  8  0  7  0.0000000  0  9G04G02G14G12G29G32G24G31G25
  23460660.008                                    23460668.340   123286777.819 6
  96067517.26543        40.600          19.600
  23522734.258                                    23522738.664   123612814.417 6
  96321698.53744        40.500          26.300
  21649816.805                                    21649822.969   113770543.438 7
  88652398.32445        47.400          32.300
  20713370.375                    20713376.133    20713376.070   108849538.219 8
  84817852.248 8        50.900          49.300
  22300573.320                    22300580.133    22300580.012   117190256.594 7
  91317169.303 7        45.100          42.600
  25151453.289                                                   132171758.79615
                        30.100
  23588189.109                    23588199.086                   123956762.208 7
  96589757.785 7        42.200          42.900
  22994397.500                    22994402.672    22994402.844   120836373.126 7
  94158237.320 6        44.200          41.800
  20292950.477                    20292958.930                   106640178.754 8
  83096302.663 8        52.000          50.600
 14  1  8  0  7 30.0000000  0  9G04G02G14G12G29G32G24G31G25
  23463812.266                                    23463819.074   123303338.695 6
  96080421.80843        40.900          19.000
  23511721.172                                    23511725.344   123554943.070 6
  96276604.02444        41.200          25.800
  21657546.313                                    21657552.066   113811162.503 7
  88684049.52845        47.800          32.000
  20723449.445                    20723455.203    20723455.258   108902502.118 8
  84859122.816 8        50.700          48.900
  22281818.914                    22281826.020    22281826.074   117091700.811 7
  91240372.625 7        44.900          42.600
  25159415.203                                                   132213609.791 5
                        32.500
  23608233.352                    23608242.859                   124062092.528 6
  96671833.290 7        41.500          43.200
  22977064.477                    22977069.941    22977069.762   120745290.152 7
  94087263.574 7        44.200          42.000
  20288022.047                    20288031.145                   106614280.222 8
  83076121.988 8        52.000          50.100
 14  1  8  0  8  0.0000000  0  9G04G02G14G12G29G32G24G31G25
  23467082.500                                    23467089.543   123320526.550 6
  96093814.95943        41.300          19.600
  23500784.563                                    23500789.027   123497469.831 6
  96231819.72644        41.300          26.400
  21665383.422                                    21665389.352   113852346.367 7
  88716140.82545        47.800          32.200
  20733597.016                    20733603.359    20733603.238   108955829.381 8
  84900676.525 8        50.800          49.100
  22263123.461                    22263130.391    22263130.211   116993456.969 7
  91163818.979 7        45.400          42.600
  25167466.922                                                   132255924.726 5
                        32.000
  23628310.352                    23628320.387                   124167596.479 6
  96754044.106 7        41.800          42.800
  22959771.023                    22959776.313    22959776.367   120654413.730 7
  94016450.782 7        43.800          42.200
  20283175.922                    20283185.020                   106588816.260 8
  83056279.930 8        52.500          50.000
 14  1  8  0  8 30.0000000  0  9G04G02G14G12G29G32G24G31G25
  23470473.430                                    23470480.121   123338342.122 6
  96107697.17543        41.800          20.400
  23489924.641                                    23489928.813   123440398.126 6
  96187348.30444        41.400          25.000
  21673328.352                                    21673333.754   113894095.437 8
  88748672.55145        48.000          32.200
  20743814.016                    20743819.832    20743819.711   109009519.785 8
  84942513.202 8        50.800          49.400
  22244488.375                    22244495.305    22244495.301   116895528.300 7
  91087510.924 7        45.500          42.400
  25175608.766                                                   132298702.918 5
                        33.400
  23648419.773                    23648429.574                   124273274.173 6
  96836390.291 7        41.300          43.400
  22942518.352                    22942524.344    22942524.516   120563747.065 7
  93945801.436 7        44.300          42.000
  20278413.320                    20278422.594                   106563788.308 8
  83036777.622 8        51.900          50.700
 14  1  8  0  9  0.0000000  0  9G04G02G14G12G29G32G24G31G25
  23473983.172                                    23473990.156   123356782.660 7
  96122066.41043        42.600          21.300
  23479141.273                                    23479144.801   123383727.780 7
  96143189.61244        42.800          25.800
  21681379.477                                    21681385.699   113936405.005 7
  88781641.02545        47.200          32.900
  20754099.523                    20754104.813    20754104.809   109063569.818 8
  84984630.104 8        51.000          49.100
  22225912.820                    22225920.043    22225919.922   116797914.626 7
  91011448.351 7        45.700          42.500
  25183836.047                                                   132341940.214 5
                        32.500
  23668561.109                    23668572.023                   124379121.043 6
  96918868.326 7        40.600          42.500
  22925304.930                    22925311.039    22925310.977   120473289.839 7
  93875315.293 7        44.900          42.500
  20273733.383                    20273742.656                   106539194.347 8
  83017613.497 8        52.600          50.100
 14  1  8  0  9 30.0000000  0  9G04G02G14G12G29G32G24G31G25
  23477611.586                                    23477618.336   123375849.672 7
  96136923.81143        42.400          21.300
  23468433.414                                    23468437.293   123327462.708 6
  96099346.70844        41.900          26.400
  21689537.148                                    21689543.254   113979275.777 8
  88815046.81245        48.200          32.000
  20764453.500                    20764458.965    20764458.785   109117979.614 8
  85027027.345 8        50.900          48.800
  22207398.523                    22207405.336    22207405.098   116700620.031 7
  90935634.391 7        45.500          42.900
  25192151.539                                                   132385636.603 5
                        31.800
  23688735.766                    23688746.621                   124485137.951 6
  97001478.854 7        41.300          42.900
  22908131.734                    22908137.551    22908137.371   120383045.887 7
  93804995.329 7        44.500          42.600
  20269136.336                    20269145.375                   106515036.444 8
  82998789.151 8        51.800          51.000
 14  1  8  0 10  0.0000000  0  9G04G02G14G12G29G32G24G31G25
  23481359.477                                    23481365.758   123395543.730 7
  96152269.79943        42.700          22.500
  23457803.781                                    23457808.656   123271606.622 7
  96055822.53344        42.600          26.300
  21697802.586                                    21697808.691   114022707.887 7
  88848890.01545        47.500          32.600
  20774875.742                    20774881.266    20774881.145   109172749.620 8
  85069705.263 8        50.700          48.300
  22188945.688                    22188951.797    22188952.203   116603648.790 7
  90860072.417 7        44.900          42.500
  25200554.242                                                   132429791.589 5
                        31.200
  23708943.461                    23708952.734                   124591324.242 6
  97084221.389 7        41.100          42.700
  22891000.305                    22891005.066    22891005.297   120293018.200 7
  93734843.885 7        44.300          42.400
  20264622.805                    20264631.785                   106491316.194 8
  82980305.841 8        52.100          49.600
 14  1  8  0 10 30.0000000  0  9G04G02G14G12G29G32G24G31G25
  23485225.367                                    23485232.527   123415863.217 7
  96168103.15043        42.800          22.300
  23447253.281                                    23447257.453   123216160.409 6
  96012617.73544        41.200          26.200
  21706173.547                                    21706179.477   114066698.535 7
  88883168.41845        46.800          31.800
  20785365.898                    20785371.070    20785370.949   109227876.708 8
  85112661.434 8        51.000          48.800
  22170554.438                    22170560.840    22170560.719   116507001.367 7
  90784762.762 7        45.300          42.900
  25209042.086                                                   132474402.098 4
                        29.900
  23729181.531                    23729191.508                   124697677.320 6
  97167093.891 7        41.600          43.000
  22873910.141                    22873915.137    22873915.250   120203207.692 7
  93664861.680 7        44.500          42.500
  20260191.984                    20260200.730                   106468032.746 8
  82962162.899 8        51.800          50.700
 14  1  8  0 11  0.0000000  0  9G04G02G14G12G29G32G24G31G25
  23489211.484                                    23489218.469   123436806.685 7
  96184422.72343        42.700          23.500
  23436780.492                                    23436784.371   123161125.494 6
  95969733.40844        41.600          25.600
  21714650.672                                    21714656.543   114111245.277 7
  88917880.12045        47.600          32.700
  20795923.969                    20795929.609    20795929.605   109283359.241 8
  85155894.571 8        50.300          49.100
  22152224.672                    22152231.836    22152231.773   116410679.559 7
  90709706.823 7        45.100          43.000
  25217617.172                                                   132519465.505 5
                        30.500
  23749451.781                    23749461.055                   124804194.585 6
  97250094.340 7        41.100          42.500
  22856860.688                    22856865.977    22856865.797   120113615.414 7
  93595049.520 7        45.600          42.900
  20255844.273                    20255853.313                   106445185.593 8
  82944359.913 8        51.900          50.700
 14  1  8  0 11 30.0000000  0  9G04G02G14G12G29G32G24G31G25
  23493315.094                                    23493322.313   123458373.787 7
  96201228.21843        42.900          22.200
  23426387.211                                    23426389.918   123106503.989 7
  95927171.22444        42.200          27.400
  21723233.289                                    21723239.043   114156346.695 7
  88953024.04645        47.500          31.200
  20806549.539                    20806555.180    20806555.234   109339196.145 8
  85199403.840 8        50.500          48.600
  22133957.563                    22133964.668    22133964.430   116314685.315 7
  90634906.119 7        44.900          42.900
  25226279.883                                                   132564979.848 5
                        30.800
  23769751.391                    23769760.840                   124910874.091 6
  97333221.221 7        41.000          43.100
  22839853.750                    22839859.859    22839859.621   120024243.465 7
  93525409.051 7        45.000          43.000
  20251579.969                    20251588.539                   106422774.950 8
  82926897.072 8        51.500          50.500
 14  1  8  0 12  0.0000000  0  9G04G02G14G12G29G32G24G31G25
  23497538.109                                    23497545.152   123480564.104 6
  96218519.33743        40.900          22.500
  23416071.422                                    23416075.594   123052298.681 6
  95884933.34444        40.900          26.300
  21731920.914                                    21731926.375   114202001.652 7
  88988599.31645        47.300          31.800
  20817242.195                    20817247.660    20817247.773   109395385.886 8
  85243188.052 8        50.800          48.700
  22115753.313                    22115760.242    22115760.180   116219021.631 7
  90560362.993 7        45.100          43.100
  25235026.250                                                   132610943.62514
                        29.900
  23790082.570                    23790092.898                   125017715.406 6
  97416474.186 7        41.400          42.700
  22822889.141                    22822894.664    22822894.719   119935094.068 7
  93455941.991 7        44.900          42.900
  20247398.180                    20247407.395                   106400801.511 8
  82909774.912 8        51.900          50.700
 14  1  8  0 12 30.0000000  0  8G04G02G14G12G29G24G31G25
  23501879.445                                    23501886.078   123503375.454 7
  96236294.39043        42.200          22.900
  23405835.789                                    23405839.492   122998510.139 6
  95843020.23344        41.400          26.200
  21740713.695                                    21740719.566   114248207.008 7
  89024603.46145        47.100          31.400
  20828001.063                    20828006.762    20828006.641   109451925.629 8
  85287244.982 8        50.500          48.700
  22097612.086                    22097619.074    22097618.895   116123689.114 7
  90486077.941 7        45.600          43.800
  23810443.961                    23810453.469                   125124715.091 6
  97499850.544 7        40.600          42.700
  22805967.023                    22805972.957    22805972.719   119846167.559 7
  93386648.595 7        45.200          43.200
  20243299.875                    20243308.387                   106379263.888 8
  82892992.346 8        52.100          50.800
 14  1  8  0 13  0.0000000  0  8G04G02G14G12G29G24G31G25
  23506338.039                                    23506345.082   123526808.017 6
  96254553.52043        40.500          21.700
  23395680.070                                    23395684.125   122945140.975 7
  95801433.91244        43.200          27.300
  21749610.633                                    21749616.680   114294962.046 7
  89061035.96345        46.500          32.400
  20838826.688                    20838832.504    20838832.324   109508815.325 8
  85331574.611 8        50.000          49.100
  22079534.727                    22079541.422    22079541.242   116028690.927 7
  90412053.416 7        45.200          43.400
  23830834.906                    23830845.234                   125231872.283 6
  97583349.656 7        41.400          42.100
  22789088.180                    22789093.879    22789093.582   119757467.112 7
  93317531.367 7        45.200          43.400
  20239284.547                    20239293.410                   106358163.182 8
  82876550.243 8        51.600          50.300
 14  1  8  0 13 30.0000000  0  8G04G02G14G12G29G24G31G25
  23510915.109                                    23510922.328   123550863.088 6
  96273297.72643        40.600          21.700
  23385604.727                                    23385608.547   122892195.352 7
  95760177.60444        42.000          27.100
  21758612.836                                    21758618.707   114342266.845 7
  89097896.83045        46.500          31.500
  20849719.281                    20849724.805    20849724.977   109566055.686 8
  85376177.491 8        50.300          48.700
  22061521.250                    22061527.945    22061527.824   115934030.905 7
  90338292.395 7        45.600          43.000
  23851256.852                    23851266.652                   125339187.433 6
  97666971.826 7        41.200          42.100
  22772252.820                    22772258.285    22772258.398   119668996.204 7
  93248593.002 7        45.300          43.400
  20235352.641                    20235361.680                   106337501.513 8
  82860450.250 8        51.600          50.500
 14  1  8  0 14  0.0000000  0  8G04G02G14G12G29G24G31G25
  23515611.156                                    23515618.199   123575539.476 6
  96292526.03643        41.400          22.000
  23375610.602                                    23375613.953   122839674.933 7
  95719252.63844        43.000          27.400
  21767718.273                                    21767724.086   114390119.377 7
  89135184.49945        46.400          30.700
  20860678.055                    20860683.461    20860683.691   109623644.655 8
  85421052.006 8        49.900          48.500
  22043572.688                    22043579.617    22043579.789   115839711.130 7
  90264796.533 7        44.600          43.100
  23871707.273                    23871716.957                   125446658.280 6
  97750715.322 7        41.200          42.300
  22755460.961                    22755466.719    22755466.715   119580756.510 7
  93179834.804 7        44.900          43.200
  20231504.523                    20231513.680                   106317278.651 8
  82844692.180 8        52.100          51.400
 14  1  8  0 14 30.0000000  0  8G04G02G14G12G29G24G31G25
  23520424.641                                    23520432.035   123600835.337 6
  96312237.09543        40.100          21.700
  23365697.414                                    23365700.707   122787580.550 7
  95678659.65144        42.900          27.400
  21776928.617                                    21776934.605   114438516.995 7
  89172896.91845        46.500          31.600
  20871702.680                    20871709.082    20871708.902   109681579.267 8
  85466195.852 8        50.000          49.500
  22025689.180                    22025695.699    22025695.813   115745733.044 7
  90191566.922 7        45.400          43.400
  23892187.883                    23892197.742                   125554282.184 6
  97834578.093 7        40.500          42.500
  22738713.930                    22738719.453    22738719.332   119492748.672 7
  93111257.267 7        45.300          43.400
  20227739.273                    20227748.488                   106297493.698 8
  82829275.333 8        52.200          51.200
 14  1  8  0 15  0.0000000  0  8G04G02G14G12G29G24G31G25
  23525356.273                                    23525362.906   123626749.499 6
  96332429.91643        39.400          22.000
  23355865.844                                    23355869.254   122735914.065 7
  95638400.08144        42.300          27.200
  21786241.297                                    21786247.109   114487457.724 7
  89211032.51745        46.000          30.900
  20882793.109                    20882798.867    20882798.863   109739858.657 8
  85511608.363 8        50.500          48.900
  22007871.141                    22007877.953    22007878.066   115652098.190 7
  90118604.731 7        45.800          43.600
  23912696.703                    23912706.387                   125662057.573 6
  97918558.893 7        40.900          42.600
  22722010.641                    22722016.750    22722016.688   119404974.707 7
  93042861.969 7        45.200          43.800
  20224057.875                    20224066.504                   106278146.612 8
  82814199.674 8        51.800          51.300
 14  1  8  0 15 30.0000000  0  8G04G02G14G12G29G24G31G25
  23530404.031                                    23530411.953   123653281.468 6
  96353104.13543        40.900          21.300
  23346115.102                                    23346118.570   122684678.066 6
  95598475.94044        40.400          27.700
  21795657.898                                    21795663.594   114536940.318 7
  89249590.38045        46.000          31.000
  20893948.625                    20893954.559    20893954.320   109798481.849 8
  85557288.772 8        50.400          48.700
  21990118.914                    21990125.902    21990125.723   115558809.267 7
  90045912.092 7        45.800          43.400
  23933234.109                    23933244.496                   125769982.787 6
  98002656.436 6        40.700          41.700
  22705353.008                    22705358.824    22705358.703   119317436.891 7
  92974650.686 7        45.500          44.100
  20220460.094                    20220468.605                   106259238.026 8
  82799465.713 8        51.600          50.800
 14  1  8  0 16  0.0000000  0  8G04G02G14G12G29G24G31G25
  23535571.875                                    23535578.684   123680431.099 6
  96374259.70343        40.800          20.600
  23336448.461                                    23336451.578   122633874.784 7
  95558888.99244        43.000          27.900
  21805176.906                                    21805182.543   114586963.381 7
  89288569.37545        46.200          31.000
  20905169.344                    20905175.102    20905175.039   109857447.032 8
  85603235.660 8        50.200          48.400
  21972432.891                    21972439.703    21972439.699   115465868.898 7
  89973491.051 7        46.100          43.600
  23953800.078                    23953810.289                   125878057.091 6
  98086870.147 6        40.300          41.400
  22688740.797                    22688746.906    22688746.668   119230137.700 7
  92906625.346 7        45.200          43.800
  20216944.820                    20216953.684                   106240768.458 8
  82785073.838 8        51.900          51.300
 14  1  8  0 16 30.0000000  0  8G04G02G14G12G29G24G31G25
  23540854.891                                    23540861.699   123708195.651 6
  96395894.40843        41.200          22.000
  23326863.430                                    23326866.430   122583504.675 7
  95519639.56844        43.000          27.800
  21814797.758                                    21814804.273   114637523.066 7
  89327966.54245        46.000          31.000
  20916454.852                    20916460.199    20916460.137   109916751.532 8
  85649446.955 8        50.200          48.600
  21954813.391                    21954819.969    21954820.082   115373277.460 7
  89901341.923 7        45.800          43.900
  23974393.547                    23974403.992                   125986276.694 6
  98171197.067 7        40.400          42.000
  22672173.555                    22672178.961    22672178.840   119143076.938 7
  92838785.798 7        45.000          43.700
  20213513.688                    20213523.137                   106222736.110 8
  82771022.651 8        51.900          51.100
 14  1  8  0 17  0.0000000  0  8G04G02G14G12G29G24G31G25
  23546255.672                                    23546262.188   123736577.061 6
  96418009.73943        41.800          21.700
  23317361.406                                    23317364.992   122533572.480 7
  95480731.36744        43.100          25.800
  21824522.289                                    21824527.750   114688620.908 7
  89367783.02345        46.700          31.600
  20927805.102                    20927810.977    20927810.855   109976397.717 8
  85695924.500 8        50.700          48.800
  21937261.734                    21937267.492    21937267.488   115281040.028 7
  89829468.652 7        46.200          43.700
  23995015.055                    23995025.324                   126094642.841 6
  98255638.206 6        40.100          41.600
  22655652.664                    22655658.188    22655657.949   119056259.826 7
  92771136.101 7        44.900          44.100
  20210166.063                    20210174.691                   106205144.376 8
  82757314.806 8        52.100          51.100
 14  1  8  0 17 30.0000000  0  8G04G02G14G12G29G24G31G25
  23551773.578                                    23551780.035   123765571.721 6
  96440602.98243        41.600          21.800
  23307942.453                                    23307946.449   122484077.620 7
  95442163.95544        42.600          27.300
  21834346.766                                    21834353.047   114740252.198 7
  89408015.16145        46.300          31.200
  20939219.375                    20939225.191    20939225.070   110036381.064 8
  85742664.763 8        50.000          48.600
  21919775.938                    21919782.398    21919782.688   115189156.045 7
  89757870.772 7        45.900          44.000
  24015664.273                    24015674.484                   126203151.535 6
  98340190.377 6        41.000          41.600
  22639178.391                    22639184.383    22639184.320   118969685.711 7
  92703675.756 7        44.600          44.300
  20206901.383                    20206910.363                   106187990.491 8
  82743948.133 8        51.800          51.200
 14  1  8  0 18  0.0000000  0  8G04G02G14G12G29G24G31G25
  23557408.031                                    23557414.840   123795179.823 7
  96463674.20443        42.200          22.000
  23298608.047                                    23298611.164   122435022.966 7
  95403939.56644        43.200          28.500
  21844272.875                                    21844279.273   114792416.193 7
  89448662.38345        45.900          31.100
  20950697.664                    20950703.773    20950703.652   110096700.485 8
  85789666.901 8        50.900          48.600
  21902358.805                    21902365.852    21902365.496   115097628.717 7
  89686550.811 7        46.100          43.500
  24036339.453                    24036348.668                   126311801.381 6
  98424852.554 6        40.800          41.800
  22622750.242                    22622755.941    22622755.645   118883357.042 7
  92636406.667 7        45.000          44.000
  20203720.922                    20203730.020                   106171275.611 8
  82730923.554 8        52.300          50.500
 14  1  8  0 18 30.0000000  0  8G04G02G14G12G29G24G31G25
  23563158.695                                    23563165.328   123825400.147 6
  96487222.47143        40.900          20.400
  23289357.063                                    23289360.180   122386410.174 7
  95366059.48944        43.900          27.800
  21854300.461                                    21854306.566   114845110.811 7
  89489723.06545        46.800          30.100
  20962240.445                    20962245.559    20962245.320   110157355.106 8
  85836930.238 8        50.700          48.200
  21885010.031                    21885016.199    21885016.430   115006460.023 7
  89615510.312 7        45.900          43.600
  24057041.344                    24057051.379                   126420591.666 6
  98509624.168 6        40.600          41.600
  22606369.805                    22606375.445    22606375.383   118797275.861 7
  92569330.424 7        44.900          44.300
  20200623.773                    20200632.637                   106154999.785 8
  82718241.091 8        52.700          51.100
 14  1  8  0 19  0.0000000  0  8G04G02G14G12G29G24G31G25
  23569025.391                                    23569033.020   123856231.588 6
  96511246.96743        40.400          21.100
  23280190.766                                    23280194.176   122338241.183 7
  95328525.22744        43.200          26.800
  21864429.109                                    21864435.508   114898334.314 7
  89531195.83945        45.800          30.200
  20973845.703                    20973850.816    20973850.754   110218343.830 8
  85884453.917 8        50.300          48.200
  21867729.805                    21867737.203    21867736.965   114915652.330 7
  89544751.107 7        45.600          44.700
  24077769.406                    24077779.441                   126529520.069 6
  98594503.393 6        40.300          41.700
  22590036.828                    22590042.234    22590042.348   118711444.583 7
  92502448.909 7        44.900          44.000
  20197610.023                    20197618.594                   106139163.166 8
  82705900.871 8        52.100          50.500
 14  1  8  0 19 30.0000000  0  8G04G02G14G12G29G24G31G25
  23575007.672                                    23575016.004   123887674.193 6
  96535747.64343        40.200          20.400
  23271109.984                                    23271113.570   122290519.233 7
  95291339.32544        42.400          28.300
  21874657.250                                    21874664.000   114952086.000 7
  89573080.22745        45.700          30.400
  20985514.922                    20985520.445    20985520.266   110279665.899 8
  85932237.341 8        50.000          48.400
  21850519.523                    21850526.395    21850526.332   114825208.834 7
  89474275.676 7        46.400          44.400
  24098524.914                    24098534.715                   126638586.288 6
  98679490.009 6        40.100          41.200
  22573751.586                    22573756.582    22573756.754   118625866.360 7
  92435764.574 7        45.000          44.100
  20194680.398                    20194689.145                   106123766.775 8
  82693903.675 8        51.500          51.100
 14  1  8  0 20  0.0000000  0  8G04G02G14G12G29G24G31G25
  23581106.930                                    23581114.969   123919725.661 6
  96560722.77443        39.600          20.900
  23262113.680                                    23262117.734   122243244.437 7
  95254501.85444        44.500          27.800
  21884985.688                                    21884992.086   115006362.287 7
  89615373.40145        46.300          30.000
  20997246.953                    20997252.535    20997252.531   110341318.675 8
  85980278.460 8        50.300          48.400
  21833377.461                    21833383.629    21833383.801   114735129.924 7
  89404084.390 7        46.500          44.000
  24119304.180                    24119314.977                   126747786.943 6
  98764581.379 6        40.200          41.400
  22557514.422                    22557520.238    22557520.000   118540540.847 7
  92369277.164 7        44.700          44.500
  20191834.008                    20191842.988                   106108809.315 8
  82682248.515 8        52.100          50.700
 14  1  8  0 20 30.0000000  0  8G04G02G14G12G29G24G31G25
  23587322.477                                    23587330.047   123952384.291 6
  96586171.02943        38.900          19.600
  23253203.039                                    23253206.273   122196418.546 7
  95218014.15944        44.100          28.600
  21895413.359                                    21895419.875   115061161.078 7
  89658073.71545        45.900          30.800
  21009041.813                    21009047.805    21009047.684   110403300.376 8
  86028575.879 7        50.400          47.800
  21816306.242                    21816312.938    21816312.523   114645417.479 7
  89334178.633 7        46.800          44.100
  24140110.344                    24140120.320                   126857120.079 6
  98849775.981 6        40.500          41.100
  22541326.125                    22541331.941    22541331.879   118455470.124 7
  92302988.295 7        45.000          44.400
  20189071.086                    20189079.773                   106094290.565 8
  82670935.207 8        51.900          50.900
 14  1  8  0 21  0.0000000  0  8G04G02G14G12G29G24G31G25
  23593653.164                                    23593660.734   123985653.364 6
  96612094.93343        39.400          20.600
  23244379.008                                    23244382.359   122150047.611 6
  95181880.98644        41.800          28.500
  21905941.445                                    21905947.902   115116484.676 7
  89701182.96145        46.000          30.700
  21020899.695                    21020905.453    21020905.625   110465613.882 8
  86077131.857 7        50.000          47.600
  21799304.719                    21799311.355    21799311.352   114556077.859 7
  89264563.385 7        46.800          43.900
  24160940.992                    24160951.320                   126966588.330 6
  98935075.878 6        40.200          40.800
  22525187.320                    22525192.902    22525193.074   118370660.283 7
  92236902.713 7        45.200          44.100
  20186392.719                    20186401.230                   106080214.834 8
  82659967.101 8        50.900          50.900
 14  1  8  0 21 30.0000000  0  8G04G02G14G12G29G24G31G25
  23600099.258                                    23600107.707   124019527.858 6
  96638490.61243        38.100          19.600
  23235640.609                                    23235644.078   122104129.404 7
  95146100.59844        43.000          29.600
  21916567.891                                    21916574.055   115172326.815 7
  89744696.25644        46.200          29.700
  21032819.680                    21032825.379    21032825.375   110528252.887 8
  86125941.466 7        49.900          47.600
  21782374.883                    21782381.930    21782381.984   114467109.113 7
  89195237.104 7        47.400          44.100
  24181796.773                    24181807.160                   127076185.830 6
  99020476.476 6        39.000          40.900
  22509097.891                    22509103.648    22509103.703   118286109.383 7
  92171018.904 7        44.900          44.200
  20183797.508                    20183806.723                   106066578.069 8
  82649341.050 8        51.500          51.000
 14  1  8  0 22  0.0000000  0  8G04G02G14G12G29G24G31G25
  23606659.727                                    23606668.293   124054005.884 6
  96665356.54743        39.300          20.600
  23226989.164                                    23226992.867   122058665.461 7
  95110674.17344        43.900          29.000
  21927292.883                                    21927298.988   115228685.202 7
  89788611.85945        46.400          31.300
  21044801.297                    21044806.820    21044806.816   110591216.890 8
  86175004.316 8        50.000          48.000
  21765515.953                    21765522.648    21765522.527   114378512.940 7
  89126201.148 7        47.000          44.300
  24202677.195                    24202686.820                   127185910.924 6
  99105976.503 6        39.000          41.200
  22493057.969                    22493062.906    22493062.961   118201819.024 7
  92105338.109 7        45.500          44.100
  20181286.273                    20181294.961                   106053380.064 8
  82639056.890 8        52.100          51.200
 14  1  8  0 22 30.0000000  0  8G04G02G14G12G29G24G31G25
  23613336.859                                    23613344.488   124089088.956 6
  96692693.91843        39.100          20.600
  23218425.031                                    23218428.617   122013659.857 6
  95075604.88544        41.400          28.900
  21938115.289                                    21938121.746   115285560.580 7
  89832930.32145        45.600          30.100
  21056844.586                    21056850.520    21056850.398   110654506.935 8
  86224321.227 8        49.500          48.000
  21748727.961                    21748734.305    21748734.359   114290294.337 7
  89057459.473 7        47.200          44.100
  24223580.828                    24223591.156                   127295764.142 6
  99191576.363 6        38.600          40.900
  22477068.391                    22477073.621    22477073.676   118117793.740 7
  92039863.858 7        44.400          44.300
  20178858.578                    20178867.500                   106040623.306 8
  82629116.556 8        50.900          51.200
 14  1  8  0 23  0.0000000  0  8G04G02G14G12G29G24G31G25
  23620127.188                                    23620134.465   124124773.108 6
  96720499.75243        40.200          20.600
  23209947.828                                    23209951.297   121969111.764 7
  95040892.12544        43.000          29.600
  21949036.047                                    21949042.621   115342948.173 7
  89877647.90945        45.800          31.200
  21068949.805                    21068955.504    21068955.207   110718118.542 8
  86273888.701 7        49.700          47.900
  21732012.555                    21732018.898    21732018.895   114202451.910 7
  88989010.910 7        47.200          44.300
  24244509.281                    24244519.668                   127405741.098 6
  99277272.645 6        38.300          40.200
  22461129.242                    22461134.766    22461134.996   118034032.475 7
  91974595.344 7        44.500          43.900
  20176514.500                    20176522.953                   106028305.035 8
  82619517.902 8        51.700          51.400
 14  1  8  0 23 30.0000000  0  8G04G02G14G12G29G24G31G25
  23627032.977                                    23627039.727   124161059.674 6
  96748774.96143        40.700          19.900
  23201558.148                                    23201562.438   121925025.687 7
  95006539.35644        42.400          28.900
  21960054.328                                    21960060.316   115400848.222 7
  89922764.81045        45.500          30.400
  21081115.930                    21081121.512    21081121.273   110782052.733 8
  86323707.530 8        49.900          48.300
  21715368.820                    21715375.809    21715375.688   114114990.218 7
  88920859.010 7        47.900          44.500
  24265460.578                    24265471.141                   127515842.892 6
  99363066.203 6        37.800          39.800
  22445241.023                    22445246.488    22445246.543   117950539.880 7
  91909536.191 7        45.100          44.100
  20174254.367                    20174263.465                   106016427.858 8
  82610262.954 8        51.400          51.500
 14  1  8  0 24  0.0000000  0  8G04G02G14G12G29G24G31G25
  23634051.727                                    23634059.063   124197946.981 6
  96777518.28543        40.200          20.900
  23193257.719                                    23193261.539   121881402.965 6
  94972547.62744        41.800          29.600
  21971169.609                                    21971175.363   115459258.414 7
  89968279.17845        46.200          30.300
  21093343.297                    21093349.172    21093348.992   110846308.140 8
  86373776.661 7        49.100          47.600
  21698798.156                    21698804.910    21698804.848   114027911.607 7
  88853005.618 7        47.600          43.800
  24286435.281                    24286446.547                   127626067.370 6
  99448955.379 6        37.700          39.900
  22429404.453                    22429410.211    22429410.324   117867317.793 7
  91844687.813 7        44.500          43.700
  20172078.102                    20172086.906                   106004991.570 8
  82601351.555 8        51.200          51.400
 14  1  8  0 24 30.0000000  0  8G04G02G14G12G29G24G31G25
  23641184.961                                    23641191.125   124235431.057 6
  96806726.59243        40.800          20.400
  23185044.023                                    23185048.020   121838242.574 7
  94938916.18544        44.000          29.700
  21982380.727                                    21982386.656   115518174.070 7
  90014187.47944        45.700          29.400
  21105631.000                    21105637.051    21105637.164   110910880.566 8
  86424092.827 7        49.100          47.500
  21682300.438                    21682307.191    21682307.305   113941214.961 7
  88785449.783 7        47.300          44.700
  24307433.219                    24307443.605                   127736410.048 6
  99534936.637 6        38.700          40.000
  22413619.570                    22413625.445    22413625.617   117784365.324 7
  91780049.536 7        44.300          43.500
  20169985.523                    20169994.797                   105993993.391 8
  82592781.538 8        51.700          51.400
 14  1  8  0 25  0.0000000  0  8G04G02G14G12G29G24G31G25
  23648432.453                                    23648438.793   124273514.462 6
  96836401.93843        40.200          20.100
  23176920.141                                    23176923.434   121795550.236 7
  94905649.44144        43.500          29.800
  21993688.672                                    21993694.484   115577596.786 7
  90060490.87844        46.200          29.900
  21117979.617                    21117985.434    21117985.137   110975771.877 8
  86474657.481 8        49.500          48.000
  21665876.563                    21665882.672    21665882.785   113854906.247 8
  88718196.210 7        48.500          44.300
  24328453.820                    24328464.266                   127846873.318 6
  99621011.888 6        37.900          39.900
  22397886.547                    22397892.012    22397891.891   117701688.282 7
  91715625.871 7        45.800          44.200
  20167976.453                    20167985.141                   105983437.183 8
  82584555.918 8        51.800          51.600
 14  1  8  0 25 30.0000000  0  8G04G02G14G12G29G24G31G25
  23655792.891                                    23655799.465   124312193.244 6
