     2.11           OBSERVATION DATA    G (GPS)             RINEX VERSION / TYPE
teqc  2013Mar15                         20140107 01:02:40UTCPGM / RUN BY / DATE
Linux 2.4.20-8|Pentium IV|gcc -static|Linux|486/DX+         COMMENT
   0.033      (antenna height)                              COMMENT
 +55.21279000 (latitude)                                    COMMENT
  -1.68549700 (longitude)                                   COMMENT
0144.425      (elevation)                                   COMMENT
BIT 2 OF LLI FLAGS DATA COLLECTED UNDER A/S CONDITION       COMMENT
MORP (COGO code)                                            COMMENT
MORP                                                        MARKER NAME
13299S001                                                   MARKER NUMBER
Matt King           NCL                                     OBSERVER / AGENCY
4843K3347           TRIMBLE NETR8       4.19                REC # / TYPE / VERS
221                 AMAD/M_T        NONE                    ANT # / TYPE
  3645667.8584  -107277.2886  5215053.4919                  APPROX POSITION XYZ
        0.0330        0.0000        0.0000                  ANTENNA: DELTA H/E/N
     1     1                                                WAVELENGTH FACT L1/2
     8    C1    P1    C2    P2    L1    L2    S1    S2      # / TYPES OF OBSERV
    30.0000                                                 INTERVAL
    16                                                      LEAP SECONDS
Forced Modulo Decimation to 30 seconds                      COMMENT
 SNR is mapped to RINEX snr flag value [0-9]                COMMENT
  L1 & L2: min(max(int(snr_dBHz/6), 0), 9)                  COMMENT
  2014     1     6    11    18   39.0000000     GPS         TIME OF FIRST OBS
                                                            END OF HEADER
 14  1  6 11 18 39.0000000  0  5G17G20G23G01G32
  21689805.359                    21689812.582    21689812.695   113980711.15917
  88816172.82317        47.300          46.300
  20086347.797                                    20086355.074   105554483.09318
  82250276.17356        49.200          40.500
  23149824.141                                    23149830.363   121653174.72617
  94794706.14154        46.200          26.200
  20844897.297                    20844908.621                   109540675.20118
  85356417.66118        50.700          50.700
  21162238.664                                    21162246.879   111208314.73218
  86655864.44756        50.500          38.900
 14  1  6 11 19  9.0000000  0  7G31G17G20G23G01G32G11
  23965095.383                    23965104.949    23965104.770   125937379.968 6
  98133013.779 6        40.200          39.300
  21684524.203                    21684531.660    21684531.773   113952940.546 7
  88794533.368 7        46.800          46.400
  20082570.195                                    20082577.355   105534616.099 8
  82234795.38946        49.900          40.800
  23130554.766                                    23130561.398   121551882.396 7
  94715777.10044        46.300          28.500
  20855649.094                    20855660.359                   109597173.252 8
  85400442.087 8        50.700          50.700
  21173637.820                                    21173646.504   111268217.169 8
  86702541.63946        49.300          39.000
  22736228.688                                    22736236.961   119479572.893 7
  93101062.44144        44.500          26.700
 14  1  6 11 19 39.0000000  0  7G31G17G20G23G01G32G11
  23954055.406                    23954065.559    23954065.320   125879367.657 6
  98087809.503 6        39.200          39.200
  21679349.266                    21679356.957    21679357.188   113925746.087 7
  88773342.872 7        46.800          45.300
  20078881.703                                    20078889.039   105515230.976 8
  82219690.09146        49.100          41.800
  23111322.547                                    23111329.414   121450814.913 7
  94637023.24944        46.300          28.500
  20866478.016                    20866489.457                   109654079.233 8
  85444784.373 8        50.800          50.400
  21185105.930                                    21185114.262   111328479.543 8
  86749499.30246        50.000          38.600
  22756026.656                                    22756034.637   119583614.063 7
  93182133.42044        44.500          27.900
 14  1  6 11 20  9.0000000  0  7G31G17G20G23G01G32G11
  23943101.680                    23943111.773    23943112.297   125821807.422 6
  98042957.486 6        40.600          40.200
  21674284.633                    21674292.148    21674292.145   113899131.493 7
  88752604.217 7        47.800          46.000
  20075285.250                                    20075292.645   105496330.597 8
  82204962.51446        48.900          41.500
  23092133.328                                    23092140.371   121349977.250 7
  94558448.48144        45.500          28.700
  20877385.148                    20877396.180                   109711394.939 8
  85489445.928 8        48.000          50.500
  21196642.039                                    21196650.195   111389102.770 7
  86796738.15046        47.800          38.600
  22775870.750                                    22775878.848   119687892.751 7
  93263389.45744        44.300          27.200
 14  1  6 11 20 39.0000000  0  7G31G17G20G23G01G32G11
  23932234.922                    23932244.547    23932244.777   125764698.924 6
  97998457.483 6        40.100          39.500
  21669330.492                    21669338.008    21669338.180   113873095.462 7
  88732316.393 7        47.500          46.300
  20071780.289                                    20071787.273   105477912.062 8
  82190610.40546        49.600          41.600
  23072987.734                                    23072995.129   121249368.765 7
  94480052.29944        46.000          28.500
  20888368.961                    20888380.461                   109769116.701 8
  85534423.898 8        50.700          50.500
  21208246.148                                    21208254.422   111450082.257 8
  86844254.60946        49.800          38.400
  22795758.664                                    22795766.762   119792403.875 7
  93344826.61744        43.900          26.900
 14  1  6 11 21  9.0000000  0  7G31G17G20G23G01G32G11
  23921453.273                    23921463.367    23921463.188   125708044.102 6
  97954310.987 6        39.500          39.500
  21664486.344                    21664493.449    21664493.680   113847638.565 7
  88712479.847 7        47.800          46.700
  20068366.891                                    20068373.875   105459975.004 8
  82176633.46446        49.500          40.800
  23053887.047                                    23053893.563   121148991.223 7
  94401836.08344        46.300          27.500
  20899429.938                    20899441.613                   109827243.133 8
  85579717.186 8        51.300          50.300
  21219917.422                                    21219926.164   111511415.627 8
  86892046.81546        49.300          38.600
  22815690.281                                    22815698.613   119897145.171 7
  93426443.13744        44.300          25.800
 14  1  6 11 21 39.0000000  0  7G31G17G20G23G01G32G11
  23910759.297                    23910770.094    23910770.148   125651848.968 6
  97910522.696 6        39.900          39.200
  21659752.953                    21659760.645    21659760.816   113822765.206 8
  88693097.999 7        48.100          45.800
  20065045.758                                    20065053.035   105442523.111 8
  82163034.58346        50.100          41.500
  23034830.125                                    23034837.227   121048850.592 7
  94323804.50044        46.200          27.600
  20910568.523                    20910580.434                   109885776.719 8
  85625327.741 8        51.100          50.500
  21231656.125                                    21231664.809   111573104.635 8
  86940116.14046        50.300          38.100
  22835666.367                                    22835674.230   120002118.233 7
  93508240.25144        44.600          26.300
 14  1  6 11 22  9.0000000  0  7G31G17G20G23G01G32G11
  23900153.180                    23900164.152    23900164.031   125596116.515 6
  97867094.939 6        40.900          39.900
  21655130.789                    21655138.891    21655138.770   113798476.944 8
  88674172.076 7        48.300          46.600
  20061817.727                                    20061824.418   105425556.808 8
  82149814.08447        49.900          42.000
  23015820.031                                    23015826.781   120948949.570 7
  94245959.62344        46.200          27.500
  20921784.719                    20921796.043                   109944717.009 8
  85671255.214 8        49.100          50.700
  21243463.016                                    21243471.172   111635147.734 8
  86988461.38846        49.200          38.500
  22855685.336                                    22855693.668   120107321.483 7
  93590216.72744        44.100          27.300
 14  1  6 11 22 39.0000000  0  8G31G17G20G23G04G01G32G11
  23889635.953                    23889646.281    23889646.102   125540845.779 6
  97824026.972 6        40.600          39.700
  21650620.297                    21650627.871    21650627.926   113774772.137 7
  88655700.793 7        47.900          46.800
  20058680.648                                    20058687.691   105409073.211 8
  82136969.71147        50.000          42.200
  22996855.461                                    22996862.328   120849287.603 7
  94168301.01744        46.000          28.300
  24102901.508                                                   126661581.717 5
                        31.800
  20933077.383                    20933088.824                   110004060.025 8
  85717496.496 8        50.900          50.200
  21255335.625                                    21255344.133   111697540.337 8
  87037078.95946        50.100          38.100
  22875748.008                                    22875756.457   120212750.157 7
  93672368.87644        44.100          24.800
 14  1  6 11 23  9.0000000  0  8G31G17G20G23G04G01G32G11
  23879206.102                    23879216.488    23879216.367   125486038.821 6
  97781320.395 6        41.500          40.200
  21646220.367                    21646228.176    21646228.055   113751650.879 8
  88637684.223 7        48.700          46.500
  20055635.508                                    20055642.668   105393071.892 8
  82124501.15046        49.500          41.400
  22977935.547                                    22977942.473   120749866.550 7
  94090830.16444        45.800          27.100
  24082171.508                                                   126552644.400 5
                        32.900
  20944445.914                    20944457.648                   110063804.424 8
  85764050.539 8        48.500          50.500
  21267275.039                                    21267282.961   111760279.944 8
  87085966.93846        48.900          38.600
  22895853.180                                    22895861.336   120318401.724 7
  93754694.68644        43.800          26.200
 14  1  6 11 23 39.0000000  0  8G31G17G20G23G04G01G32G11
  23868866.734                    23868876.184    23868876.004   125431698.645 6
  97738977.551 6        40.400          39.700
  21641931.852                    21641939.777    21641939.949   113729115.505 8
  88620124.190 7        49.100          46.600
  20052682.625                                    20052689.668   105377553.359 8
  82112408.78046        49.800          41.600
  22959062.227                                    22959069.855   120650689.233 7
  94013549.22344        46.100          27.500
  24061461.594                                                   126443817.296 5
                        32.000
  20955891.578                    20955902.902                   110123949.975 8
  85810917.171 8        50.900          50.500
  21279279.117                                    21279288.152   111823365.606 8
  87135124.56646        50.500          37.900
  22916000.445                                    22916008.426   120424274.780 7
  93837193.08744        44.000          25.800
 14  1  6 11 24  9.0000000  0  8G31G17G20G23G04G01G32G11
  23858614.469                    23858625.324    23858625.379   125377828.073 6
  97697000.635 6        40.700          40.400
  21637755.500                    21637763.250    21637763.129   113707167.102 8
  88603021.528 7        48.200          46.100
  20049821.383                                    20049828.660   105362518.310 8
  82100693.15546        49.800          41.100
  22940236.523                                    22940243.859   120551758.585 7
  93936460.51044        46.400          27.900
  24040773.516                                                   126335102.611 5
                        33.100
  20967413.453                    20967425.012                   110184496.094 8
  85858095.937 8        51.100          50.000
  21291349.969                                    21291358.477   111886795.777 8
  87184550.64746        50.500          38.300
  22936189.141                                    22936197.590   120530367.652 7
  93919862.78244        44.400          24.800
 14  1  6 11 24 39.0000000  0  8G31G17G20G23G04G01G32G11
  23848452.570                    23848464.129    23848464.008   125324430.103 6
  97655391.971 6        41.100          40.800
  21633690.578                    21633698.270    21633698.383   113685807.090 8
  88586377.362 7        48.700          46.000
  20047052.297                                    20047059.516   105347967.226 8
  82089354.64046        49.300          40.800
  22921458.383                                    22921464.957   120453077.478 7
  93859566.24344        45.900          28.200
  24020107.719                                                   126226502.631 5
                        33.300
  20979010.984                    20979022.191                   110245442.310 7
  85905586.461 8        46.700          49.900
  21303485.633                                    21303494.141   111950569.302 7
  87234244.26546        46.800          37.900
  22956419.406                                    22956427.797   120636679.215 7
  94002702.88944        44.700          24.600
 14  1  6 11 25  9.0000000  0  8G31G17G20G23G04G01G32G11
  23838381.266                    23838392.238    23838392.527   125271505.290 6
  97614151.988 6        40.900          41.300
  21629737.867                    21629745.500    21629745.730   113665034.816 8
  88570191.168 7        49.200          46.600
  20044375.391                                    20044382.199   105333898.229 8
  82078391.78046        49.900          41.300
  22902727.305                                    22902734.055   120354646.305 7
  93782866.72844        45.600          28.100
  23999465.156                                                   126118017.646 5
                        33.500
  20990684.227                    20990695.551                   110306786.118 8
  85953386.801 8        50.800          50.200
  21315686.078                                    21315694.469   112014682.706 8
  87284202.72846        51.100          38.100
  22976691.195                                    22976699.234   120743205.786 7
  94085710.51344        44.700          26.900
 14  1  6 11 25 39.0000000  0  8G31G17G20G23G04G01G32G11
  23828400.789                    23828411.527    23828411.523   125219056.928 6
  97573283.266 6        40.000          40.700
  21625897.406                    21625905.039    21625905.094   113644852.529 8
  88554464.698 7        48.500          46.400
  20041790.055                                    20041796.922   105320312.563 8
  82067805.54046        50.200          40.800
  22884044.656                                    22884051.348   120256468.928 7
  93706364.97544        46.000          28.000
  23978843.375                                                   126009650.697 5
                        34.600
  21002433.750                    21002445.074                   110368527.657 8
  86001497.062 8        50.600          50.100
  21327950.688                                    21327959.371   112079135.304 8
  87334425.49346        51.300          37.300
  22997002.859                                    22997011.367   120849946.283 7
  94168884.84444        44.700          25.800
 14  1  6 11 26  9.0000000  0  8G31G17G20G23G04G01G32G11
  23818510.375                    23818521.816    23818521.930   125167085.989 6
  97532786.547 6        41.200          41.200
  21622169.000                    21622176.867    21622176.746   113625259.462 8
  88539197.355 7        48.100          46.500
  20039297.008                                    20039303.699   105307209.175 8
  82057595.09546        49.600          41.200
  22865410.609                                    22865417.008   120158545.899 7
  93630061.42644        47.000          28.500
  23958243.695                                                   125901402.016 5
                        35.400
  21014257.680                    21014268.828                   110430664.463 8
  86049915.323 8        51.000          49.500
  21340280.008                                    21340288.281   112143923.839 8
  87384910.02846        50.700          38.000
  23017354.922                                    23017363.430   120956897.305 7
  94252223.24544        45.200          24.200
 14  1  6 11 26 39.0000000  0  8G31G17G20G23G04G01G32G11
  23808712.797                    23808723.652    23808723.883   125115597.843 6
  97492666.030 6        41.400          41.000
  21618553.445                    21618560.961    21618561.133   113606259.646 8
  88524392.288 7        48.800          46.300
  20036895.453                                    20036902.379   105294590.842 8
  82047762.62146        49.900          41.100
  22846825.250                                    22846832.117   120060882.669 7
  93553960.30844        46.600          29.100
  23937668.477                                                   125793276.739 5
                        35.700
  21026157.664                    21026168.930                   110493198.853 7
  86098643.390 8        46.200          50.200
  21352672.883                                    21352681.332   112209049.706 7
  87435657.42246        46.800          37.100
  23037747.336                                    23037756.078   121064060.182 7
  94335726.70544        44.100          25.400
 14  1  6 11 27  9.0000000  0  8G31G17G20G23G04G01G32G11
  23799006.813                    23799017.316    23799017.781   125064593.423 6
  97452922.427 6        41.700          41.600
  21615050.516                    21615058.324    21615058.613   113587852.750 8
  88510049.240 7        49.300          46.800
  20034585.961                                    20034593.004   105282456.197 8
  82038307.04146        49.500          40.900
  22828291.109                                    22828297.273   119963480.154 7
  93478062.33644        46.600          28.800
  23917115.977                                                   125685274.936 5
                        35.700
  21038132.570                    21038144.129                   110556128.072 7
  86147679.115 8        47.300          50.000
  21365129.531                                    21365137.805   112274509.449 7
  87486664.97146        47.500          38.000
  23058179.430                                    23058188.289   121171431.592 7
  94419392.63544        44.500          25.600
 14  1  6 11 27 39.0000000  0  8G31G17G20G23G04G01G32G11
  23789393.531                    23789404.445    23789404.148   125014074.392 6
  97413557.055 6        41.400          41.500
  21611660.625                    21611668.375    21611668.488   113570039.121 8
  88496168.483 7        48.600          46.700
  20032369.148                                    20032376.016   105270804.453 8
  82029227.74846        49.600          41.400
  22809805.555                                    22809811.953   119866340.153 7
  93402368.93144        46.600          28.000
  23896588.266                                                   125577398.193 6
                        36.100
  21050182.750                    21050194.602                   110619450.795 8
  86197021.470 8        50.900          49.800
  21377649.375                                    21377657.941   112340300.901 8
  87537931.00246        50.800          37.700
  23078650.898                                    23078659.758   121279008.921 7
  94503219.05144        43.500          25.300
 14  1  6 11 28  9.0000000  0  8G31G17G20G23G04G01G32G11
  23779872.883                    23779883.328    23779883.441   124964042.350 7
  97374571.152 6        42.400          41.400
  21608383.523                    21608391.684    21608391.797   113552818.893 8
  88482750.108 7        49.100          46.400
  20030243.438                                    20030250.422   105259635.126 8
  82020524.36446        49.400          41.200
  22791370.469                                    22791377.219   119769464.503 7
  93326881.49144        46.300          29.700
  23876084.477                                                   125469647.735 5
                        35.700
  21062307.164                    21062317.609                   110683165.411 8
  86246669.188 8        50.100          49.900
  21390232.016                                    21390239.938   112406421.779 8
  87589453.73146        51.000          37.500
  23099160.859                                    23099169.426   121386789.853 7
  94587204.12044        43.600          25.300
 14  1  6 11 28 39.0000000  0  8G31G17G20G23G04G01G32G11
  23770445.031                    23770455.008    23770455.297   124914499.962 7
  97335966.802 6        42.800          40.700
  21605220.039                    21605228.199    21605228.313   113536193.535 8
  88469795.271 7        48.400          46.600
  20028210.000                                    20028217.219   105248948.823 8
  82012197.36746        48.800          41.600
  22772986.484                                    22772993.645   119672855.887 7
  93251602.13544        46.300          29.200
  23855603.938                                                   125362026.103 6
                        36.200
  21074506.234                    21074517.793                   110747271.433 8
  86296621.904 8        50.600          49.800
  21402876.570                                    21402885.020   112472870.661 8
  87641232.04646        50.900          37.500
  23119709.750                                    23119717.965   121494772.694 7
  94671346.52544        43.300          24.300
 14  1  6 11 29  9.0000000  0  8G31G17G20G23G04G01G32G11
  23761111.469                    23761121.387    23761121.617   124865450.600 7
  97297746.632 6        42.600          40.700
  21602169.820                    21602177.512    21602177.859   113520164.721 8
  88457305.277 7        48.000          46.800
  20026268.547                                    20026275.531   105238746.453 8
  82004247.45446        49.000          41.600
  22754653.906                                    22754660.598   119576517.695 7
  93176533.47444        46.700          29.700
  23835149.742                                                   125254535.914 5
                        35.400
  21086779.883                    21086790.797                   110811768.813 8
  86346879.568 8        50.700          49.500
  21415583.609                                    21415592.645   112539646.818 8
  87693265.38246        50.600          37.700
  23140297.133                                    23140305.406   121602956.481 7
  94755645.49144        43.600          25.300
 14  1  6 11 29 39.0000000  0  8G31G17G20G23G04G01G32G11
  23751871.570                    23751881.430    23751881.367   124816895.187 7
  97259911.372 6        44.300          40.900
  21599232.656                    21599240.816    21599240.871   113504731.849 8
  88445279.656 7        48.500          46.500
  20024418.906                                    20024425.832   105229026.706 8
  81996673.62146        48.400          41.000
  22736372.586                                    22736379.395   119480450.991 7
  93101676.37144        46.600          29.800
  23814718.867                                                   125147177.815 5
                        35.800
  21099127.313                    21099138.930                   110876655.408 7
  86397440.519 8        47.300          50.200
  21428352.367                                    21428360.699   112606747.260 7
  87745551.40846        47.500          37.200
  23160920.992                                    23160929.207   121711337.997 7
  94840098.54244        42.700          25.900
 14  1  6 11 30  9.0000000  0  8G31G17G20G23G04G01G32G11
  23742727.188                    23742736.227    23742736.340   124768837.640 7
  97222464.075 6        44.700          40.400
  21596410.594                    21596418.637    21596418.457   113489897.814 8
  88433720.655 7        48.000          46.600
  20022661.930                                    20022668.738   105219791.481 8
  81989477.33846        49.100          41.300
  22718145.039                                    22718151.086   119384659.721 7
  93027033.89544        46.600          29.900
  23794315.336                                                   125039955.601 5
                        35.200
  21111548.805                    21111560.012                   110941931.867 8
  86448305.260 8        50.300          50.200
  21441182.805                                    21441191.195   112674171.961 8
  87798090.10646        51.000          37.800
  23181582.227                                    23181590.910   121819917.245 7
  94924705.66544        43.000          24.200
 14  1  6 11 30 39.0000000  0  8G31G17G20G23G04G01G32G11
  23733676.227                    23733685.734    23733685.320   124721277.058 7
  97185404.023 6        44.200          40.400
  21593700.727                    21593708.945    21593709.117   113475660.173 8
  88422626.387 7        48.500          46.700
  20020995.680                                    20021002.898   105211036.903 8
  81982655.57946        48.800          41.300
  22699968.148                                    22699974.781   119289143.362 7
  92952605.61345        46.700          30.400
  23773937.211                                    23773946.246   124932868.184 5
  97350334.29642        35.800          17.400
  21124044.109                    21124055.961                   111007594.225 7
  86499470.694 8        45.800          50.100
  21454073.961                                    21454082.527   112741916.016 7
  87850877.64946        46.400          38.100
  23202280.797                                    23202289.891   121928689.013 7
  95009462.80644        42.800          25.100
 14  1  6 11 31  9.0000000  0  8G31G17G20G23G04G01G32G11
  23724720.875                    23724730.266    23724730.320   124674218.169 7
  97148734.888 6        44.600          40.600
  21591105.758                    21591113.625    21591113.621   113462022.154 8
  88411999.357 7        48.300          46.600
  20019421.961                                    20019428.887   105202765.894 8
  81976210.63046        49.200          41.700
  22681845.164                                    22681851.621   119193906.455 7
  92878395.10545        47.200          30.800
  23753586.008                                    23753595.922   124825919.670 6
  97266997.83042        36.500          15.600
  21136612.734                    21136624.352                   111073643.739 8
  86550937.808 8        49.500          50.000
  21467026.469                                    21467035.445   112809980.146 8
  87903914.59746        49.300          37.100
  23223017.273                                    23223025.547   122037654.126 6
  95094370.60544        41.100          24.600
 14  1  6 11 31 39.0000000  0  9G31G17G20G23G04G01G32G11G13
  23715861.383                    23715871.008    23715870.535   124627663.128 7
  97112458.353 6        44.600          40.300
  21588624.602                    21588632.527    21588632.699   113448984.453 8
  88401840.100 7        48.800          46.600
  20017940.094                                    20017946.844   105194978.420 8
  81970142.46446        49.400          41.300
  22663775.891                                    22663782.465   119098951.327 7
  92804404.14444        47.000          29.800
  23733261.398                                    23733270.902   124719112.379 6
  97183771.39142        36.900          16.300
  21149255.172                    21149266.262                   111140079.451 8
  86602705.859 8        49.500          50.200
  21480039.375                                    21480048.117   112878362.596 8
  87957199.59346        49.400          37.100
  23243788.359                                    23243797.629   122146810.303 6
  95179427.27844        41.600          26.100
  25241678.883                                                   132645899.675 5
                        33.800
 14  1  6 11 32  9.0000000  0  9G31G17G20G23G04G01G32G11G13
  23707099.289                    23707107.801    23707107.855   124581614.751 7
  97076576.632 6        43.900          39.900
  21586258.828                    21586265.875    21586265.930   113436548.779 8
  88392149.966 7        49.100          46.500
  20016550.078                                    20016557.180   105187675.141 8
  81964451.59846        48.600          41.300
  22645761.172                                    22645766.984   119004281.341 7
  92730635.37344        46.200          29.700
  23712963.281                                    23712973.840   124612448.869 6
  97100656.98442        37.500          16.900
  21161970.492                    21161981.875                   111206901.366 7
  86654774.844 8        46.000          50.000
  21493112.695                                    21493121.145   112947062.716 7
  88010732.12546        46.900          37.100
  23264596.625                                    23264606.129   122256156.966 7
  95264632.39543        42.500          22.800
  25218753.055                                                   132525427.280 5
                        34.200
 14  1  6 11 32 39.0000000  0  9G31G17G20G23G04G01G32G11G13
  23698432.516                    23698441.848    23698441.844   124536072.016 7
  97041088.902 6        44.900          40.600
  21584005.898                    21584014.059    21584014.230   113424712.759 8
  88382927.095 7        48.600          46.100
  20015251.648                                    20015258.809   105180852.851 8
  81959135.52246        48.600          41.300
  22627799.273                                    22627806.199   118909895.535 7
  92657088.04545        46.800          30.000
  23692693.180                                    23692703.152   124505928.398 6
  97017654.02442        36.600          13.900
  21174759.164                    21174770.957                   111274105.235 8
  86707141.451 8        50.200          49.600
  21506245.086                                    21506253.535   113016075.366 8
  88064508.18746        50.800          37.600
  23285440.063                                    23285449.098   122365688.835 7
  95349981.80244        42.200          24.000
  25195823.461                                                   132404948.147 5
                        34.300
 14  1  6 11 33  9.0000000  0  9G31G17G20G23G04G01G32G11G13
  23689862.328                    23689871.895    23689871.539   124491037.301 7
  97005997.029 6        43.300          39.700
  21581867.891                    21581875.816    21581876.164   113413476.940 8
  88374171.905 7        48.600          47.000
  20014045.102                                    20014052.262   105174511.306 8
  81954194.06346        48.300          40.800
  22609892.984                                    22609899.207   118815796.554 7
  92583764.21645        46.500          30.700
  23672449.938                                    23672460.965   124399552.557 6
  96934763.78342        36.900          16.900
  21187620.492                    21187632.051                   111341690.130 8
  86759804.962 8        50.300          49.400
  21519437.000                                    21519445.684   113085399.024 8
  88118526.59446        50.300          37.700
  23306318.125                                    23306327.043   122475403.992 7
  95435474.02743        42.800          22.500
  25172896.773                                                   132284464.775 5
                        34.600
 14  1  6 11 33 39.0000000  0  9G31G17G20G23G04G01G32G11G13
  23681389.563                    23681399.129    23681398.832   124446515.143 7
  96971304.544 6        43.100          40.200
  21579844.648                    21579851.930    21579851.984   113402844.468 8
  88365886.869 7        48.200          46.800
  20012930.492                                    20012937.066   105168653.382 8
  81949629.44847        48.200          42.000
  22592041.859                                    22592048.492   118721989.272 7
  92510667.68044        47.200          29.600
  23652236.320                                    23652246.820   124293326.146 6
  96851990.00342        37.500          16.300
  21200553.953                    21200565.453                   111409657.643 8
  86812766.610 8        49.900          49.900
  21532688.250                                    21532697.168   113155034.523 8
  88172787.99246        50.500          37.500
  23327231.914                                    23327239.895   122585303.223 7
  95521109.69643        43.400          23.300
  25149969.344                                                   132163981.787 5
                        34.500
 14  1  6 11 34  9.0000000  0  9G31G17G20G23G04G01G32G11G13
  23673015.422                    23673024.227    23673024.340   124402506.022 7
  96937011.832 6        43.500          40.000
  21577935.828                    21577943.285    21577943.574   113392814.529 8
  88358071.326 7        48.800          46.000
  20011907.219                                    20011913.910   105163277.027 8
  81945440.07946        48.600          40.900
  22574246.625                                    22574252.906   118628473.912 7
  92437798.60645        46.900          30.500
  23632050.484                                    23632061.160   124187249.160 6
  96769332.61342        37.500          15.600
  21213560.203                    21213571.586                   111478004.744 8
  86866024.040 8        49.400          49.000
  21545998.500                                    21546006.773   113224978.179 8
  88227289.50846        50.000          37.200
  23348178.680                                    23348187.305   122695382.466 7
  95606885.61943        42.900          22.900
  25127042.641                                                   132043500.069 5
                        35.000
 14  1  6 11 34 39.0000000  0  9G31G17G20G23G04G01G32G11G13
  23664737.797                    23664747.949    23664747.770   124359012.325 7
  96903120.738 6        42.700          40.200
  21576142.727                    21576149.598    21576149.828   113383387.937 8
  88350725.927 7        48.800          46.300
  20010975.977                                    20010982.961   105158382.413 8
  81941626.09246        48.600          40.600
  22556507.609                                    22556513.832   118535253.514 7
  92365159.37945        47.200          30.400
  23611893.797                                    23611904.297   124081324.231 6
  96686793.77142        37.300          16.900
  21226638.633                    21226649.957                   111546731.056 8
  86919576.964 8        48.600          49.300
  21559366.906                                    21559374.828   113295228.989 8
  88282030.36746        49.600          36.800
  23369160.273                                    23369169.250   122805640.823 7
  95692801.10844        42.600          25.000
  25104116.563                                                   131923022.062 5
                        34.600
 14  1  6 11 35  9.0000000  0  9G31G17G20G23G04G01G32G11G13
  23656559.578                    23656570.082    23656570.078   124316034.928 7
  96869631.947 6        42.700          40.400
  21574463.172                    21574471.273    21574471.328   113374564.291 8
  88343850.357 7        49.000          46.700
  20010136.242                                    20010143.109   105153968.453 8
  81938186.65146        48.700          41.600
  22538824.234                                    22538830.867   118442329.109 7
  92292750.79445        47.000          30.400
  23591766.484                                    23591776.281   123975552.234 6
  96604374.06742        38.100          17.400
  21239788.703                    21239800.320                   111615834.324 7
  86973423.617 8        46.300          48.400
  21572792.922                                    21572800.902   113365783.821 7
  88337008.12946        47.200          37.000
  23390175.828                                    23390184.570   122916074.828 7
  95778853.48743        42.400          22.500
  25081191.250                                                   131802549.183 5
                        34.500
 14  1  6 11 35 39.0000000  0  9G31G17G20G23G04G01G32G11G13
  23648479.891                    23648490.219    23648490.215   124273578.796 7
  96836549.327 6        42.000          41.300
  21572899.742                    21572907.434    21572907.254   113366346.671 7
  88337447.014 7        47.900          46.400
  20009387.750                                    20009395.203   105150038.055 8
  81935124.00246        48.900          41.000
  22521198.984                                    22521205.031   118349706.204 7
  92220577.13445        47.200          31.200
  23571668.484                                    23571678.750   123869938.028 6
  96522077.33442        38.000          17.400
  21253010.383                    21253022.293                   111685316.432 7
  87027565.474 8        47.500          48.600
  21586276.938                                    21586285.445   113436644.218 7
  88392223.99546        47.800          36.700
  23411223.719                                    23411232.871   123026685.819 6
  95865043.75443        41.400          23.000
  25058267.867                                                   131682086.955 5
                        34.800
 14  1  6 11 36  9.0000000  0  9G31G17G20G23G04G01G32G11G13
  23640500.469                    23640511.031    23640510.852   124231644.826 7
  96803873.574 6        42.400          41.300
  21571451.234                    21571458.750    21571458.922   113358734.891 8
  88331515.753 7        48.200          46.400
  20008731.719                                    20008738.879   105146589.674 8
  81932436.95046        49.000          41.300
  22503630.898                                    22503637.531   118257385.477 7
  92148638.93245        47.500          30.800
  23551601.609                                    23551610.938   123764482.635 6
  96439904.34143        39.600          18.300
  21266304.125                    21266316.211                   111755175.215 8
  87082000.832 8        50.100          49.800
  21599818.516                                    21599827.316   113507807.062 8
  88447675.53346        50.600          36.300
  23432305.844                                    23432314.586   123137470.679 6
  95951369.52044        41.800          24.300
  25035346.367                                                   131561636.584 5
                        34.500
 14  1  6 11 36 39.0000000  0  9G31G17G20G23G04G01G32G11G13
  23632619.586                    23632630.383    23632630.379   124190231.783 7
  96771603.725 6        42.200          41.600
  21570117.031                    21570124.898    21570124.895   113351726.430 8
  88326054.601 7        48.800          46.400
  20008166.750                                    20008173.676   105143620.213 8
  81930123.07946        49.200          41.400
  22486119.578                                    22486126.445   118165366.190 7
  92076935.61645        47.400          30.700
  23531564.570                                    23531572.961   123659184.848 6
  96357854.12942        39.200          17.800
  21279669.328                    21279680.828                   111825406.396 8
  87136726.376 8        49.900          49.200
  21613417.383                                    21613425.949   113579267.653 8
  88503359.08846        50.300          36.600
  23453419.484                                    23453427.875   123248424.292 6
  96037826.76144        41.700          24.100
  25012427.180                                                   131441197.645 6
                        36.000
 14  1  6 11 37  9.0000000  0  9G31G17G20G23G04G01G32G11G13
  23624839.195                    23624849.113    23624849.109   124149344.169 7
  96739743.291 6        43.000          41.600
  21568898.203                    21568907.008    21568906.945   113345323.960 8
  88321065.644 7        48.700          46.700
  20007693.195                                    20007700.355   105141131.921 8
  81928184.14646        49.400          41.200
  22468667.898                                    22468674.063   118073653.213 7
  92005470.97445        47.300          31.300
  23511557.023                                    23511565.707   123554049.182 6
  96275930.25642        38.700          17.800
  21293104.227                    21293116.371                   111896011.457 8
  87191743.251 8        49.800          49.100
  21627072.500                                    21627081.242   113651026.788 8
  88559275.27146        50.300          36.000
  23474565.633                                    23474574.609   123359547.393 7
  96124416.07943        42.100          22.900
  24989511.555                                                   131320774.489 6
                        36.300
 14  1  6 11 37 39.0000000  0  9G31G17G20G23G04G01G32G11G13
  23617158.602                    23617169.574    23617169.395   124108984.324 7
  96708294.088 7        43.300          42.200
  21567796.242                    21567804.051    21567804.047   113339528.540 8
  88316549.713 7        48.800          46.900
  20007311.242                                    20007318.871   105139124.760 8
  81926620.12646        49.300          41.100
  22451273.617                                    22451280.543   117982249.293 7
  91934247.16145        47.600          30.900
  23491581.820                                    23491590.973   123449077.955 6
  96194134.49843        39.200          18.600
  21306611.477                    21306622.566                   111966989.668 8
  87247050.889 8        50.100          49.700
  21640784.375                                    21640793.059   113723083.045 8
  88615422.98646        50.300          37.300
  23495743.516                                    23495752.668   123470838.195 6
  96211136.06843        41.700          21.800
  24966600.594                                                   131200370.158 6
                        36.300
 14  1  6 11 38  9.0000000  0  9G31G17G20G23G04G01G32G11G13
  23609578.961                    23609589.582    23609589.578   124069151.147 7
  96677255.277 6        43.000          41.600
  21566808.219                    21566816.496    21566816.434   113334337.702 8
  88312504.888 7        49.400          46.300
  20007019.969                                    20007027.070   105137595.458 8
  81925428.46746        48.800          41.400
  22433939.133                                    22433945.121   117891153.457 7
  91863263.40645        47.200          30.800
  23471637.758                                    23471647.027   123344270.456 6
  96112466.33043        40.500          18.300
  21320188.758                    21320200.316                   112038336.849 8
  87302646.036 8        49.400          49.000
  21654551.617                                    21654560.535   113795431.784 8
  88671798.61746        49.600          36.000
  23516952.297                                    23516961.391   123582291.796 6
  96297982.93343        41.800          22.000
  24943690.711                                                   131079983.670 6
                        37.100
 14  1  6 11 38 39.0000000  0  9G31G17G20G23G04G01G32G11G13
  23602100.555                    23602110.941    23602110.879   124029850.357 7
  96646631.299 7        42.600          42.200
  21565936.648                    21565944.691    21565944.746   113329755.335 7
  88308934.187 7        47.600          46.000
  20006820.898                                    20006827.883   105136548.058 8
  81924612.30746        48.600          41.700
  22416664.180                                    22416670.637   117800371.791 7
  91792524.46245        47.400          31.800
  23451725.781                                    23451735.109   123239632.334 6
  96030930.12343        40.200          19.600
  21333835.945                    21333847.914                   112110055.699 8
  87358530.799 8        49.700          48.600
  21668375.289                                    21668384.207   113868074.828 8
  88728403.57246        50.000          36.700
  23538192.688                                    23538201.664   123693910.286 6
  96384958.26043        41.700          23.200
  24920786.961                                                   130959621.574 6
                        39.000
 14  1  6 11 39  9.0000000  0  9G31G17G20G23G04G01G32G11G13
  23594723.500                    23594733.418    23594733.531   123991082.174 7
  96616422.314 7        43.700          42.100
  21565180.195                    21565188.238    21565188.234   113325780.656 7
  88305837.023 7        47.000          46.100
  20006713.156                                    20006719.789   105135980.733 8
  81924170.23046        48.100          41.900
  22399448.813                                    22399455.328   117709905.107 7
  91722030.95445        47.300          31.600
  23431846.031                                    23431854.715   123135164.228 6
  95949526.40943        39.200          19.600
  21347553.992                    21347565.844                   112182143.737 8
  87414703.247 8        49.400          49.300
  21682254.266                                    21682263.066   113941009.260 8
  88785235.58645        49.800          35.700
  23559463.578                                    23559472.438   123805690.036 7
  96472059.26743        42.100          21.700
  24897887.570                                                   130839284.989 6
                        38.500
 14  1  6 11 39 39.0000000  0  9G31G17G20G23G04G01G32G11G13
  23587447.398                    23587457.141    23587456.844   123952847.350 7
  96586628.952 6        43.500          41.700
  21564539.172                    21564547.566    21564547.621   113322412.771 8
  88303212.669 7        48.300          46.400
  20006696.227                                    20006703.094   105135892.110 8
  81924101.17346        49.400          41.800
  22382293.477                                    22382300.227   117619755.115 7
  91651784.22045        47.700          31.700
  23411999.133                                    23412008.168   123030867.180 6
  95868256.00243        40.300          19.900
  21361341.984                    21361353.543                   112254598.694 8
  87471161.601 8        49.400          49.100
  21696187.938                                    21696196.504   114014232.172 8
  88842292.39645        49.500          35.200
  23580765.180                                    23580774.684   123917628.225 7
  96559283.70843        42.600          22.600
  24874993.172                                                   130718975.016 6
                        37.900
 14  1  6 11 40  9.0000000  0  9G31G17G20G23G04G01G32G11G13
  23580273.227                    23580283.613    23580283.961   123915148.484 7
  96557253.215 6        43.600          41.400
  21564013.805                    21564021.496    21564021.668   113319652.517 7
  88301061.797 7        47.800          46.300
  20006770.125                                    20006777.754   105136282.062 8
  81924405.02846        49.100          41.000
  22365199.203                                    22365205.660   117529924.075 7
  91581786.01645        47.400          31.400
  23392184.414                                    23392193.801   122926743.609 6
  95787120.73043        39.500          19.900
  21375199.602                    21375210.750                   112327419.926 8
  87527905.368 8        49.400          48.600
  21710176.758                                    21710185.617   114087742.434 8
  88899573.11345        49.800          35.700
  23602096.781                                    23602105.875   124029723.612 7
  96646630.67843        43.000          22.900
  24852104.477                                                   130598694.193 6
                        37.200
 14  1  6 11 40 39.0000000  0  9G31G17G20G23G04G01G32G11G13
  23573201.992                    23573211.383    23573211.262   123877987.086 7
  96528296.289 6        43.400          41.100
  21563603.805                    21563612.199    21563612.078   113317500.033 8
  88299384.524 7        48.300          46.300
  20006935.859                                    20006942.844   105137150.611 8
  81925081.81446        49.500          41.100
  22348165.891                                    22348172.465   117440413.852 8
  91512037.79945        48.000          32.200
  23372403.664                                    23372413.344   122822795.314 6
  95706122.09143        40.600          19.900
  21389125.703                    21389137.965                   112400606.080 8
  87584933.495 8        49.400          48.800
  21724219.789                                    21724228.473   114161537.960 8
  88957076.12145        49.200          35.500
  23623456.945                                    23623465.805   124141973.962 7
  96734098.35243        42.400          23.000
  24829221.961                                                   130478445.138 6
                        37.300
 14  1  6 11 41  9.0000000  0  9G31G17G20G23G04G01G32G11G13
  23566233.766                    23566242.453    23566242.625   123841365.044 7
  96499759.631 6        43.400          41.300
  21563310.375                    21563318.242    21563318.590   113315955.685 8
  88298181.119 7        48.000          46.300
  20007191.844                                    20007198.887   105138497.503 8
  81926131.33746        49.500          41.300
  22331194.766                                    22331200.930   117351226.904 7
  91442541.48345        47.600          32.300
  23352657.109                                    23352666.262   122719024.611 6
  95625261.80543        40.200          20.100
  21403122.148                    21403133.531                   112474156.096 8
  87642245.143 8        48.500          48.400
  21738316.422                                    21738325.340   114235617.186 8
  89014800.18546        49.100          36.000
  23644846.555                                    23644855.297   124254377.193 7
  96821685.16443        42.800          22.500
  24806345.758                                    24806357.020   130358230.315 6
 101577882.65142        38.700          14.800
 14  1  6 11 41 39.0000000  0  9G31G17G20G23G04G01G32G11G13
  23559367.055                    23559376.152    23559375.914   123805284.231 7
  96471644.715 6        43.600          41.900
  21563132.625                    21563140.082    21563140.313   113315020.088 8
  88297452.075 7        48.500          46.300
  20007539.180                                    20007546.164   105140322.577 8
  81927553.46646        49.200          40.900
  22314284.914                                    22314290.961   117262365.647 8
  91373298.96245        48.100          32.600
  23332944.016                                    23332954.164   122615433.773 6
  95544541.72343        40.400          20.400
  21417187.641                    21417198.848                   112548069.083 8
  87699839.621 8        48.600          49.100
  21752467.391                                    21752475.957   114309978.810 8
  89072744.29145        49.100          35.500
  23666265.695                                    23666274.613   124366931.621 7
  96909389.81744        42.700          24.500
  24783476.422                                    24783487.918   130238052.376 6
 101484237.60642        37.900          16.300
 14  1  6 11 42  9.0000000  0  9G31G17G20G23G04G01G32G11G13
  23552604.391                    23552614.074    23552614.129   123769746.782 7
  96443953.207 6        43.300          41.100
  21563070.078                    21563078.297    21563078.469   113314693.655 7
  88297197.697 7        46.200          46.400
  20007977.453                                    20007984.555   105142625.928 7
  81929348.28746        46.700          41.700
  22297437.336                                    22297443.617   117173832.848 7
  91304312.38245        47.600          32.800
  23313266.250                                    23313276.164   122512025.247 6
  95463963.66343        40.600          20.400
  21431321.758                    21431333.258                   112622344.217 8
  87757716.297 8        48.700          48.200
  21766670.578                                    21766680.375   114384621.323 8
  89130907.27745        49.500          35.600
  23687712.445                                    23687721.715   124479635.974 7
  96997211.26643        43.100          23.300
  24760615.586                                    24760626.672   130117913.992 6
 101390623.33242        38.000          15.600
 14  1  6 11 42 39.0000000  0  9G31G17G20G23G04G01G32G11G13
  23545945.773                    23545955.105    23545954.926   123734754.594 7
  96416686.580 6        43.300          41.100
  21563124.063                    21563131.988    21563132.043   113314976.591 8
  88297418.163 7        48.100          46.800
  20008506.680                                    20008513.723   105145407.244 8
  81931515.54646        48.800          40.900
  22280652.672                                    22280659.480   117085630.256 7
  91235583.10645        47.800          32.900
  23293623.023                                    23293632.703   122408800.822 6
  95383529.08343        40.200          19.900
  21445524.539                    21445536.391                   112696980.127 8
  87815874.091 8        48.500          48.900
  21780927.969                                    21780936.359   114459542.772 8
  89189287.60345        49.900          35.600
  23709187.555                                    23709196.941   124592488.128 7
  97085147.89644        43.000          24.500
  24737761.023                                    24737772.578   129997817.455 6
 101297041.67342        37.800          16.300
 14  1  6 11 43  9.0000000  0  9G31G17G20G23G04G01G32G11G13
  23539391.125                    23539400.223    23539399.750   123700308.199 7
  96389845.263 6        43.300          40.100
  21563293.672                    21563301.773    21563302.004   113315868.222 7
  88298112.935 7        46.500          46.500
  20009126.648                                    20009133.984   105148665.273 7
  81934054.26846        46.900          40.900
  22263932.172                                    22263938.629   116997759.457 8
  91167112.36245        48.000          33.300
  23274015.555                                    23274025.410   122305761.831 6
  95303238.96643        39.600          20.600
  21459795.727                    21459807.109                   112771974.916 8
  87874311.527 8        49.000          48.400
  21795238.195                                    21795247.172   114534740.867 8
  89247883.50745        50.100          35.800
  23730690.117                                    23730699.152   124705485.231 7
  97173197.47843        43.000          22.300
  24714916.508                                    24714927.242   129877764.410 6
 101203493.90742        37.900          16.300
 14  1  6 11 43 39.0000000  0  9G31G17G20G23G04G01G32G11G13
  23532940.266                    23532949.246    23532949.359   123666409.838 7
  96363430.999 6        42.700          41.000
  21563579.445                    21563587.430    21563587.543   113317369.631 7
  88299282.862 7        47.600          46.500
  20009837.789                                    20009844.129   105152400.255 8
  81936964.63746        48.700          40.900
  22247274.422                                    22247280.762   116910222.913 8
  91098902.08145        48.300          34.100
  23254444.016                                    23254453.461   122202910.919 6
  95223095.42743        39.900          20.400
  21474134.789                    21474145.703                   112847327.821 8
  87933028.026 8        49.100          48.900
  21809600.000                                    21809609.094   114610214.311 8
  89306693.95745        49.700          35.500
  23752220.102                                    23752229.313   124818625.958 7
  97261358.94343        43.200          23.500
  24692078.688                                    24692090.125   129757757.893 6
 101109982.43442        38.000          15.600
 14  1  6 11 44  9.0000000  0  9G31G17G20G23G04G01G32G11G13
  23526594.141                    23526603.414    23526603.000   123633061.366 7
  96337445.239 6        42.900          40.400
  21563981.086                    21563989.012    21563989.125   113319480.671 7
  88300927.830 7        45.000          46.900
  20010638.898                                    20010646.176   105156611.988 7
  81940246.50946        45.600          41.100
  22230680.742                                    22230686.672   116823023.227 8
  91030954.29945        48.500          33.000
  23234907.609                                    23234917.348   122100250.263 6
  95143100.14843        40.600          21.100
  21488541.664                    21488553.398                   112923037.803 8
  87992022.762 8        49.100          48.400
  21824014.430                                    21824023.172   114685961.506 8
  89365717.72445        50.200          35.500
  23773777.078                                    23773786.172   124931908.548 7
  97349630.97543        43.100          22.800
  24669252.227                                    24669263.020   129637800.320 6
 101016509.10742        36.500          15.600
 14  1  6 11 44 39.0000000  0  9G31G17G20G23G04G01G32G11G13
  23520353.141                    23520362.004    23520361.941   123600264.556 7
  96311889.370 6        42.500          39.400
  21564499.031                    21564506.840    21564506.895   113322201.670 7
  88303048.094 7        47.500          46.100
  20011530.992                                    20011538.035   105161300.122 7
