     2.11           OBSERVATION DATA    G (GPS)             RINEX VERSION / TYPE
teqc  2013Mar15                         20140110 01:02:36UTCPGM / RUN BY / DATE
Linux 2.4.20-8|Pentium IV|gcc -static|Linux|486/DX+         COMMENT
   0.033      (antenna height)                              COMMENT
 +55.21279000 (latitude)                                    COMMENT
  -1.68549700 (longitude)                                   COMMENT
0144.425      (elevation)                                   COMMENT
BIT 2 OF LLI FLAGS DATA COLLECTED UNDER A/S CONDITION       COMMENT
MORP (COGO code)                                            COMMENT
MORP                                                        MARKER NAME
13299S001                                                   MARKER NUMBER
Matt King           NCL                                     OBSERVER / AGENCY
4843K3347           TRIMBLE NETR8       4.19                REC # / TYPE / VERS
221                 AOAD/M_T        NONE                    ANT # / TYPE
  3645667.8584  -107277.2886  5215053.4919                  APPROX POSITION XYZ
        0.0330        0.0000        0.0000                  ANTENNA: DELTA H/E/N
     1     1                                                WAVELENGTH FACT L1/2
     8    C1    P1    C2    P2    L1    L2    S1    S2      # / TYPES OF OBSERV
    30.0000                                                 INTERVAL
    16                                                      LEAP SECONDS
Forced Modulo Decimation to 30 seconds                      COMMENT
 SNR is mapped to RINEX snr flag value [0-9]                COMMENT
  L1 & L2: min(max(int(snr_dBHz/6), 0), 9)                  COMMENT
  2014     1     9     0     0    0.0000000     GPS         TIME OF FIRST OBS
                                                            END OF HEADER
 14  1  9  0  0  0.0000000  0  8G02G04G12G14G29G24G31G25
  23589047.664                                    23589052.012   123961317.804 6
  96593238.36344        41.100          27.300
  23444929.922                                    23444936.848   123203952.228 7
  96003101.52843        42.500          22.300
  20655403.680                    20655409.789    20655409.727   108544851.626 8
  84580476.975 8        51.700          49.300
  21607191.141                                    21607197.832   113546570.880 7
  88477847.08645        47.200          31.400
  22413846.836                    22413853.355    22413853.469   117785527.502 7
  91780980.342 7        44.700          42.000
  23474078.352                    23474088.563                   123357081.227 6
  96122491.905 7        41.600          43.400
  23099087.102                    23099092.156    23099092.504   121386738.724 7
  94586930.580 7        43.000          42.000
  20323203.734                    20323212.773                   106799127.786 8
  83220187.511 8        51.400          50.900
 14  1  9  0  0 30.0000000  0  8G02G04G12G14G29G24G31G25
  23577591.664                                    23577595.895   123901117.558 6
  96546329.09644        40.100          27.100
  23447387.289                                    23447393.863   123216865.076 7
  96013163.48143        42.500          21.800
  20665070.070                    20665075.945    20665075.883   108595649.766 8
  84620059.938 8        51.600          49.600
  21614302.945                                    21614308.758   113583936.588 7
  88506963.21045        47.900          32.400
  22394745.047                    22394752.504    22394752.559   117685150.556 7
  91702764.542 7        44.900          42.200
  23493925.836                    23493936.340                   123461382.165 7
  96203765.328 7        42.200          43.200
  23081525.117                    23081530.348    23081530.695   121294450.336 7
  94515017.554 6        42.400          41.900
  20317795.234                    20317804.391                   106770705.834 8
  83198040.544 8        51.500          50.700
 14  1  9  0  1  0.0000000  0  8G02G04G12G14G29G24G31G25
  23566209.055                                    23566213.109   123841302.613 6
  96499720.10144        41.100          27.000
  23449964.477                                    23449971.285   123230407.741 7
  96023716.25143        42.400          20.900
  20674807.688                    20674813.035    20674812.973   108646819.559 8
  84659932.512 8        51.300          49.300
  21621522.078                                    21621528.242   113621875.540 7
  88536526.02545        47.200          32.100
  22375700.797                    22375707.961    22375708.016   117585071.847 7
  91624781.152 7        44.300          42.200
  23513808.703                    23513818.445                   123565866.436 7
  96285181.604 7        42.300          43.200
  23064000.492                    23064006.191    23064006.188   121202357.911 7
  94443257.227 7        43.100          42.200
  20312469.203                    20312478.125                   106742717.295 8
  83176231.328 8        51.700          51.200
 14  1  9  0  1 30.0000000  0  8G02G04G12G14G29G24G31G25
  23554899.563                                    23554904.203   123781873.566 6
  96453411.76944        40.800          26.300
  23452660.578                                    23452667.445   123244578.170 6
  96034758.12343        41.600          19.900
  20684615.031                    20684620.965    20684620.551   108698357.569 8
  84700091.992 8        51.000          49.700
  21628850.500                                    21628856.664   113660385.043 8
  88566533.41745        48.200          31.900
  22356713.359                    22356720.465    22356720.168   117485292.454 7
  91547030.988 7        45.100          42.400
  23533725.953                    23533735.285                   123670530.942 6
  96366738.310 7        41.700          43.300
  23046512.383                    23046518.727    23046518.605   121110461.946 7
  94371650.002 7        43.300          42.300
  20307225.414                    20307234.160                   106715160.793 8
  83154758.760 8        51.500          50.600
 14  1  9  0  2  0.0000000  0  8G02G04G12G14G29G24G31G25
  23543665.227                                    23543669.926   123722835.787 6
  96407408.32944        38.800          25.900
  23455476.469                                    23455484.332   123259379.084 6
  96046291.32143        41.600          21.100
  20694492.664                    20694498.773    20694498.770   108750266.030 8
  84740540.155 8        50.800          49.900
  21636287.414                                    21636293.578   113699466.291 7
  88596986.32145        47.700          33.000
  22337783.977                    22337791.434    22337791.137   117385817.384 7
  91469517.976 7        45.000          42.800
  23553677.664                    23553687.172                   123775377.218 7
  96448436.661 7        42.500          43.600
  23029064.180                    23029069.820    23029069.875   121018767.255 7
  94300199.599 7        43.300          42.600
  20302064.133                    20302073.172                   106688039.662 8
  83133625.405 8        51.100          50.200
 14  1  9  0  2 30.0000000  0  9G02G04G12G14G29G32G24G31G25
  23532505.727                                    23532509.664   123664189.648 6
  96361710.07044        41.700          25.100
  23458412.648                                    23458420.219   123274808.440 6
  96058314.18143        41.300          19.900
  20704440.531                    20704446.348    20704446.285   108802542.168 8
  84781274.811 8        51.000          49.100
  21643832.703                                    21643838.457   113739116.777 7
  88627882.78845        47.400          31.600
  22318912.977                    22318919.848    22318920.078   117286647.316 7
  91392242.604 7        44.500          42.100
  25145194.195                                                   132138828.672 5
                        31.500
  23573662.773                    23573672.457                   123880401.839 7
  96530273.982 7        42.300          43.200
  23011654.055                    23011658.992    23011659.047   120927273.392 7
  94228905.687 7        44.000          42.200
  20296986.031                    20296994.602                   106661352.569 8
  83112830.270 8        52.300          50.800
 14  1  9  0  3  0.0000000  0  9G02G04G12G14G29G32G24G31G25
  23521420.539                                    23521424.828   123605937.306 6
  96316318.63644        41.300          26.200
  23461468.281                                    23461476.145   123290865.668 6
  96070826.30943        40.600          19.300
  20714457.656                    20714463.531    20714463.762   108855184.025 8
  84822294.440 8        51.200          49.600
  21651485.945                                    21651491.641   113779334.758 7
  88659221.46745        47.500          31.300
  22300099.570                    22300107.379    22300107.023   117187784.236 7
  91315206.445 6        45.300          41.900
  25153104.602                                                   132180396.607 5
                        31.800
  23593683.141                    23593692.180                   123985603.063 7
  96612248.916 7        42.600          43.000
  22994281.563                    22994286.324    22994286.613   120835982.719 7
  94157770.105 7        43.400          42.200
  20291990.297                    20291999.160                   106635099.630 8
  83092373.426 8        52.300          50.800
 14  1  9  0  3 30.0000000  0  9G02G04G12G14G29G32G24G31G25
  23510410.820                                    23510414.699   123548081.259 6
  96271236.03344        41.100          25.700
  23464643.422                                    23464650.465   123307550.507 6
  96083827.51743        40.500          19.900
  20724544.836                    20724550.887    20724550.707   108908190.627 8
  84863598.284 8        51.100          49.100
  21659246.984                                    21659253.148   113820119.133 7
  88691001.47745        47.300          32.300
  22281345.641                    22281352.629    22281352.508   117089231.295 7
  91238411.950 7        44.700          42.600
  25161102.344                                                   132222430.012 5
                        32.300
  23613734.344                    23613744.379                   124090979.343 6
  96694360.261 7        41.800          43.600
  22976948.633                    22976954.391    22976954.387   120744897.381 7
  94086794.521 7        43.600          42.700
  20287077.023                    20287085.477                   106609281.337 8
  83072255.270 8        51.800          50.400
 14  1  9  0  4  0.0000000  0  9G02G04G12G14G29G32G24G31G25
  23499476.570                                    23499480.684   123490622.883 7
  96226463.30044        42.000          25.000
  23467937.852                                    23467944.836   123324861.868 6
  96097316.86243        40.600          19.900
  20734700.563                    20734706.145    20734706.023   108961559.814 8
  84905184.663 8        50.800          49.000
  21667115.406                                    21667121.043   113861467.647 7
  88723221.09645        47.500          32.100
  22262650.273                    22262657.906    22262657.961   116990989.394 7
  91161859.832 7        44.600          43.000
  25169188.453                                                   132264926.231 5
                        33.200
  23633820.273                    23633829.723                   124196528.414 7
  96776606.251 7        42.100          42.700
  22959654.961                    22959659.898    22959660.012   120654018.251 7
  94015979.606 7        43.900          42.600
  20282246.133                    20282255.582                   106583897.163 8
  83052475.410 8        52.100          50.600
 14  1  9  0  4 30.0000000  0  9G02G04G12G14G29G32G24G31G25
  23488619.164                                    23488622.926   123433565.022 6
  96182002.65644        41.500          27.400
  23471351.773                                    23471358.348   123342799.723 6
  96111294.40443        41.600          21.500
  20744925.367                    20744930.949    20744930.828   109015291.040 8
  84947053.155 8        51.300          49.200
  21675091.008                                    21675096.645   113903379.246 8
  88755879.46845        48.000          32.400
  22244015.758                    22244022.453    22244022.625   116893061.521 7
  91085552.413 7        44.900          42.400
  25177363.953                                                   132307883.821 5
                        33.400
  23653938.195                    23653947.762                   124302249.178 6
  96858986.028 7        41.500          43.400
  22942400.820                    22942406.344    22942406.105   120563347.888 7
  93945327.375 7        44.400          42.400
  20277498.711                    20277507.633                   106558947.999 8
  83033034.569 8        51.600          50.700
 14  1  9  0  5  0.0000000  0  9G02G04G12G14G29G32G24G31G25
  23477838.031                                    23477842.613   123376911.844 7
  96137857.34544        42.000          27.000
  23474884.141                                    23474891.301   123361365.830 6
  96125761.52543        41.600          20.900
  20755218.625                    20755225.203    20755224.906   109069385.001 8
  84989204.285 8        51.100          49.100
  21683173.297                                    21683179.520   113945854.900 7
  88788977.36345        47.900          32.100
  22225440.984                    22225448.969    22225448.906   116795452.279 7
  91009493.276 7        46.200          42.300
  25185625.023                                                   132351303.377 5
                        31.500
  23674090.281                    23674098.852                   124408142.344 6
  96941500.142 7        41.600          42.700
  22925187.344                    22925192.867    22925192.688   120472890.556 7
  93874841.154 7        43.900          42.600
  20272834.125                    20272843.398                   106534436.249 8
  83013934.527 8        52.700          50.700
 14  1  9  0  5 30.0000000  0  9G02G04G12G14G29G32G24G31G25
  23467134.359                                    23467138.707   123320662.870 6
  96094026.98244        41.400          26.200
  23478536.508                                    23478543.375   123380556.688 7
  96140715.45043        42.200          21.700
  20765580.883                    20765586.816    20765586.637   109123837.065 8
  85031634.461 8        50.900          48.800
  21691362.813                                    21691369.270   113988889.895 7
  88822511.11645        46.600          32.100
  22206927.297                    22206934.402    22206934.457   116698161.020 7
  90933681.910 7        44.500          42.700
  25193975.016                                                   132395179.901 5
                        31.600
  23694271.523                    23694281.441                   124514203.391 6
  97024145.078 7        40.700          43.400
  22908014.484                    22908019.539    22908019.477   120382645.026 7
  93804519.970 7        43.800          42.600
  20268252.641                    20268262.090                   106510359.217 8
  82995173.224 8        52.100          50.500
 14  1  9  0  6  0.0000000  0  9G02G04G12G14G29G32G24G31G25
  23456508.000                                    23456511.996   123264821.899 6
  96050514.56844        41.600          26.700
  23482307.813                                    23482314.680   123400373.720 7
  96156157.28043        43.300          22.200
  20776011.414                    20776016.586    20776016.758   109178648.317 8
  85074344.527 8        50.600          48.800
  21699658.414                                    21699664.871   114032484.965 7
  88856481.29145        46.700          31.800
  22188474.875                    22188481.688    22188481.566   116601192.064 7
  90858121.683 7        45.600          42.500
  25202412.367                                                   132439513.391 4
                        29.900
  23714486.789                    23714496.648                   124620432.212 6
  97106920.746 7        40.500          42.500
  22890882.047                    22890887.453    22890887.508   120292615.208 7
  93734366.868 7        44.300          42.400
  20263753.977                    20263763.309                   106486719.066 8
  82976752.332 8        51.500          50.500
 14  1  9  0  6 30.0000000  0  9G02G04G12G14G29G32G24G31G25
  23445960.219                                    23445964.215   123209391.361 6
  96007321.97644        40.400          26.600
  23486197.664                                    23486204.707   123420816.445 7
  96172086.67143        42.300          22.500
  20786509.453                    20786515.387    20786515.266   109233817.509 8
  85117333.508 8        51.200          48.200
  21708060.781                                    21708066.945   114076638.416 7
  88890886.56645        47.200          31.400
  22170084.000                    22170090.930    22170090.633   116504547.890 7
  90782814.528 7        46.100          43.200
  25210934.063                                                   132484302.203 5
                        30.100
  23734733.492                    23734743.000                   124726827.890 6
  97189826.434 7        40.600          43.000
  22873791.055                    22873796.813    22873796.750   120202803.078 7
  93664383.396 7        44.300          42.900
  20259338.664                    20259347.645                   106463516.168 8
  82958672.169 8        51.400          50.200
 14  1  9  0  7  0.0000000  0  9G02G04G12G14G29G32G24G31G25
  23435490.188                                    23435494.125   123154371.988 7
  95964449.73744        42.800          26.400
  23490207.148                                    23490214.016   123441882.874 7
  96188502.07943        43.200          22.200
  20797075.453                    20797081.152    20797080.914   109289341.175 8
  85160598.689 8        50.900          48.300
  21716568.609                                    21716574.773   114121347.640 7
  88925724.91645        46.600          31.900
  22151755.609                    22151762.129    22151762.184   116408228.558 7
  90707760.491 7        46.000          43.200
  25219542.586                                                   132529542.982 5
                        30.300
  23755010.422                    23755019.813                   124833387.117 6
  97272859.558 7        40.800          43.000
  22856742.047                    22856748.156    22856747.918   120113208.895 7
  93594569.755 7        44.700          43.000
  20255006.250                    20255015.230                   106440749.308 8
  82940931.758 8        51.300          51.100
 14  1  9  0  7 30.0000000  0  9G02G04G12G14G29G32G24G31G25
  23425099.859                                    23425102.859   123099766.159 7
  95921899.76144        42.000          25.600
  23494333.844                                    23494341.063   123463572.553 7
  96205403.12843        42.400          22.500
  20807708.234                    20807713.875    20807714.105   109345218.627 8
  85204139.548 8        50.700          48.400
  21725182.094                                    21725188.258   114166611.117 7
  88960995.15845        47.500          31.800
  22133488.102                    22133495.617    22133495.496   116312236.525 7
  90632961.524 7        44.900          43.500
  25228238.688                                                   132575234.070 4
                        29.900
  23775318.914                    23775328.832                   124940108.774 6
  97356019.246 7        40.700          43.000
  22839734.758                    22839740.340    22839740.102   120023835.239 7
  93524927.948 7        44.600          43.700
  20250756.758                    20250765.680                   106418419.148 8
  82923531.673 8        51.900          50.400
 14  1  9  0  8  0.0000000  0  9G02G04G12G14G29G32G24G31G25
  23414787.508                                    23414791.152   123045576.311 6
  95879673.94144        40.900          25.200
  23498580.141                                    23498587.301   123485885.468 6
  96222789.79443        41.100          22.800
  20818408.766                    20818414.406    20818414.520   109401449.444 8
  85247955.762 8        50.900          48.200
  21733900.680                                    21733906.668   114212427.386 7
  88996696.14845        46.400          31.200
  22115285.266                    22115291.551    22115291.723   116216575.405 7
  90558420.430 7        45.000          42.600
  25237018.492                                                   132621373.72715
                        30.300
  23795657.750                    23795668.254                   125046991.313 6
  97439304.294 7        40.800          42.200
  22822769.367                    22822775.301    22822775.121   119934684.305 7
  93455459.691 7        44.200          42.300
  20246590.969                    20246600.066                   106396526.124 8
  82906472.188 8        52.100          50.200
 14  1  9  0  8 30.0000000  0  8G02G04G12G14G29G24G31G25
  23404554.703                                    23404558.465   122991804.996 7
  95837774.25044        42.200          26.400
  23502944.617                                    23502951.836   123508821.013 7
  96240661.65643        42.100          22.800
  20829176.219                    20829181.742    20829181.855   109458032.257 8
  85292046.267 8        50.200          48.200
  21742724.078                                    21742729.891   114258795.537 7
  89032827.15045        46.400          31.600
  22097143.914                    22097151.957    22097151.660   116121247.493 7
  90484138.981 7        45.400          43.000
  23816027.414                    23816038.152                   125154033.286 6
  97522713.587 6        40.700          41.700
  22805847.719                    22805853.301    22805853.297   119845758.201 7
  93386166.639 7        44.600          43.300
  20242508.102                    20242517.434                   106375070.813 8
  82889753.760 8        52.600          49.700
 14  1  9  0  9  0.0000000  0  8G02G04G12G14G29G24G31G25
  23394402.023                                    23394406.313   122938453.945 6
  95796202.03244        41.600          26.700
  23507427.180                                    23507434.457   123532378.295 6
  96259017.96543        40.300          21.500
  20840010.070                    20840015.711    20840015.707   109514964.986 8
  85336409.444 8        49.500          48.500
  21751652.406                                    21751658.219   114305713.465 7
  89069386.56445        46.400          31.400
  22079067.898                    22079074.652    22079074.648   116026254.426 7
  90410118.432 7        45.100          44.100
  23836426.789                    23836436.766                   125261233.136 6
  97606245.904 7        41.300          42.200
  22788968.961                    22788974.895    22788974.832   119757058.968 7
  93317050.359 7        45.300          42.700
  20238508.398                    20238517.613                   106354053.010 8
  82873376.199 8        52.100          50.500
 14  1  9  0  9 30.0000000  0  8G02G04G12G14G29G24G31G25
  23384331.188                                    23384333.895   122885526.578 7
  95754959.95544        43.300          27.900
  23512028.656                                    23512035.406   123556557.910 6
  96277859.22143        40.300          22.300
  20850910.633                    20850916.859    20850916.738   109572248.078 8
  85381045.627 8        50.300          48.200
  21760685.023                                    21760691.012   114353180.669 7
  89106373.98345        46.600          32.100
  22061055.211                    22061062.961    22061062.898   115931599.803 7
  90336361.603 7        45.800          43.300
  23856855.391                    23856865.953                   125368590.546 6
  97689900.978 7        40.400          42.600
  22772134.031                    22772139.379    22772139.316   119668589.176 7
  93248112.873 7        45.200          43.900
  20234592.570                    20234601.785                   106333474.313 8
  82857340.795 8        51.700          49.900
 14  1  9  0 10  0.0000000  0  8G02G04G12G14G29G24G31G25
  23374339.766                                    23374342.941   122833021.776 7
  95714047.14944        43.700          26.400
  23516746.375                                    23516754.355   123581356.160 6
  96297182.51543        40.600          21.100
  20861876.844                    20861883.129    20861882.891   109629876.282 8
  85425950.724 8        50.100          48.300
  21769821.344                                    21769826.980   114401192.575 7
  89143785.84645        46.500          31.100
  22043107.117                    22043113.988    22043114.219   115837282.797 7
  90262867.866 7        45.800          44.000
  23877314.367                    23877325.223                   125476100.557 6
  97773674.968 7        41.200          42.400
  22755341.875                    22755347.691    22755347.629   119580348.024 7
  93179353.545 7        44.900          43.100
  20230759.547                    20230768.762                   106313332.019 8
  82841645.508 8        51.800          50.500
 14  1  9  0 10 30.0000000  0  8G02G04G12G14G29G24G31G25
  23364429.359                                    23364433.297   122780942.988 7
  95673466.30144        43.500          26.900
  23521583.344                                    23521590.738   123606773.296 6
  96316988.05143        40.000          20.600
  20872909.148                    20872915.199    20872915.020   109687850.805 8
  85471125.670 8        49.800          48.300
  21779061.656                                    21779067.703   114449748.893 7
  89181621.92245        45.700          31.400
  22025224.102                    22025231.559    22025231.496   115743307.005 7
  90189639.999 7        46.100          44.000
  23897802.836                    23897812.813                   125583763.460 6
  97857568.092 7        40.700          42.300
  22738594.398                    22738600.273    22738600.094   119492338.697 7
  93110774.850 7        45.000          43.400
  20227010.047                    20227019.320                   106293627.487 8
  82826291.380 8        52.000          50.500
 14  1  9  0 11  0.0000000  0  8G02G04G12G14G29G24G31G25
  23354601.102                                    23354603.809   122729293.066 6
  95633219.61144        41.400          27.500
  23526538.578                                    23526545.973   123632809.548 6
  96337276.07043        39.700          20.900
  20884007.180                    20884013.348    20884013.285   109746170.433 8
  85516569.534 8        50.100          48.600
  21788404.930                                    21788411.094   114498848.868 7
  89219881.62545        46.300          30.900
  22007407.398                    22007413.977    22007414.383   115649675.371 7
  90116680.312 7        45.400          43.600
  23918319.047                    23918328.613                   125691577.838 6
  97941579.243 7        40.400          42.000
  22721891.094                    22721897.320    22721897.375   119404564.193 7
  93042379.129 7        45.300          44.000
  20223343.617                    20223352.891                   106274361.751 8
  82811279.157 8        51.200          50.900
 14  1  9  0 11 30.0000000  0  8G02G04G12G14G29G24G31G25
  23344853.586                                    23344857.113   122678073.085 6
  95593307.96844        41.300          27.300
  23531610.750                                    23531617.793   123659463.220 6
  96358045.12443        40.600          21.300
  20895170.188                    20895176.531    20895176.352   109804832.977 8
  85562280.599 8        50.400          48.600
  21797851.367                                    21797857.473   114548489.920 7
  89258562.95245        45.400          30.900
  21989655.305                    21989662.410    21989662.465   115556389.345 7
  90043989.905 7        45.200          43.500
  23938864.406                    23938874.090                   125799541.265 6
  98025706.545 7        40.600          42.100
  22705233.430                    22705239.246    22705239.125   119317025.638 7
  92974167.281 7        44.700          44.100
  20219761.164                    20219769.793                   106255533.942 8
  82796608.076 8        51.400          51.300
 14  1  9  0 12  0.0000000  0  8G02G04G12G14G29G24G31G25
  23335188.609                                    23335192.781   122627285.392 7
  95553733.16144        42.800          27.100
  23536799.891                                    23536807.051   123686733.748 6
  96379294.90443        40.900          21.300
  20906398.398                    20906404.039    20906404.094   109863837.596 8
  85608258.226 8        49.500          48.900
  21807399.891                                    21807406.406   114598670.206 7
  89297664.46145        46.000          30.900
  21971969.938                    21971977.277    21971976.746   115463451.429 7
  89971570.748 7        46.000          43.500
  23959436.602                    23959447.105                   125907652.698 6
  98109949.181 7        40.600          42.100
  22688620.805                    22688626.328    22688626.324   119229725.267 7
  92906141.028 7        44.900          43.600
  20216261.820                    20216270.801                   106237144.900 8
  82782279.000 8        51.900          50.500
 14  1  9  0 12 30.0000000  0  8G02G04G12G14G29G24G31G25
  23325607.188                                    23325610.832   122576931.408 7
  95514496.31044        43.600          27.100
  23542106.203                                    23542113.422   123714619.295 6
  96401023.89843        41.100          20.900
  20917691.094                    20917697.438    20917697.434   109923181.913 8
  85654500.559 8        50.200          48.500
  21817051.203                                    21817057.543   114649387.472 7
  89337184.40645        45.800          30.900
  21954351.000                    21954357.285    21954357.516   115370862.907 7
  89899423.855 7        45.400          44.100
  23980037.602                    23980047.109                   126015909.270 6
  98194304.924 6        40.100          41.200
  22672053.563                    22672058.793    22672058.730   119142663.981 7
  92838301.058 7        45.000          43.800
  20212846.086                    20212854.598                   106219193.719 8
  82768291.104 8        52.100          50.400
 14  1  9  0 13  0.0000000  0  8G02G04G12G14G29G24G31G25
  23316107.875                                    23316111.813   122527014.157 7
  95475599.76744        43.700          26.400
  23547530.789                                    23547536.777   123743120.608 6
  96423232.73043        41.400          21.500
  20929048.750                    20929054.684    20929054.621   109982865.848 8
  85701007.535 8        50.100          48.300
  21826804.648                                    21826810.813   114700641.351 7
  89377122.47545        46.400          30.000
  21936799.289                    21936806.277    21936805.980   115278627.502 7
  89827552.138 7        46.100          44.100
  24000666.430                    24000675.762                   126124310.827 6
  98278773.631 7        40.100          42.000
  22655533.023                    22655538.840    22655538.309   119055845.324 7
  92770650.151 7        44.400          44.500
  20209513.344                    20209522.383                   106201681.943 8
  82754645.613 8        52.600          50.900
 14  1  9  0 13 30.0000000  0  8G02G04G12G14G29G24G31G25
  23306693.430                                    23306696.371   122477536.371 6
  95437045.68344        41.800          27.000
  23553071.234                                    23553077.691   123772237.095 6
  96445920.87443        41.300          21.700
  20940470.781                    20940476.773    20940476.711   110042888.814 8
  85747778.695 8        51.100          48.300
  21836659.383                                    21836665.137   114752429.976 7
  89417477.21745        46.300          31.500
  21919315.039                    21919321.676    21919321.789   115186747.566 7
  89755957.397 7        46.000          43.900
  24021320.859                    24021331.656                   126232856.450 6
  98363354.593 6        40.600          41.700
  22639057.953                    22639063.887    22639063.590   118969271.596 7
  92703190.109 7        44.800          44.000
  20206264.539                    20206273.695                   106184610.078 8
  82741342.866 8        52.000          50.200
 14  1  9  0 14  0.0000000  0  8G02G04G12G14G29G24G31G25
  23297361.125                                    23297364.418   122428497.307 7
  95398833.44344        44.500          28.600
  23558728.234                                    23558734.809   123801965.117 6
  96469085.58343        41.900          21.700
  20951956.516                    20951962.332    20951962.211   110103246.834 8
  85794810.908 8        50.400          48.000
  21846616.094                                    21846622.023   114804749.245 7
  89458245.45445        45.100          30.400
  21901897.719                    21901905.234    21901904.996   115095222.784 7
  89684639.410 7        46.100          43.900
  24042002.898                    24042013.168                   126341541.918 6
  98448044.525 6        40.000          41.300
  22622630.125                    22622636.176    22622636.055   118882942.348 7
  92635920.568 7        45.400          44.500
  20203099.164                    20203108.086                   106167975.654 8
  82728380.923 8        52.600          51.000
 14  1  9  0 14 30.0000000  0  8G02G04G12G14G29G24G31G25
  23288113.531                                    23288117.527   122379902.405 7
  95360967.30844        44.200          28.300
  23564502.195                                    23564507.949   123832307.277 6
  96492728.82643        41.300          20.900
  20963506.430                    20963512.773    20963512.418   110163941.664 8
  85842105.567 7        50.300          47.800
  21856672.852                                    21856679.777   114857601.117 7
  89499428.71745        46.000          30.900
  21884550.180                    21884557.285    21884557.340   115004059.127 7
  89613602.830 7        45.400          43.700
  24062711.992                    24062722.672                   126450368.843 6
  98532844.686 6        40.700          41.700
  22606249.703                    22606255.637    22606255.398   118796862.738 7
  92568845.541 7        44.600          44.600
  20200017.852                    20200027.125                   106151782.579 8
  82715762.942 8        52.600          50.500
 14  1  9  0 15  0.0000000  0  8G02G04G12G14G29G24G31G25
  23278951.039                                    23278954.391   122331750.598 7
  95323446.42744        42.600          27.700
  23570392.203                                    23570398.719   123863259.724 6
  96516847.58343        41.000          21.800
  20975119.320                    20975125.371    20975125.426   110224969.381 8
  85889659.610 7        50.500          47.700
  21866831.016                                    21866837.355   114910980.398 7
  89541022.93545        45.800          30.900
  21867271.484                    21867277.770    21867277.531   114913255.632 7
  89542846.899 7        46.000          44.700
  24083447.367                    24083457.344                   126559332.867 6
  98617751.680 6        40.600          41.000
  22589916.727                    22589922.191    22589922.363   118711032.230 7
  92501964.646 7        44.700          44.600
  20197019.625                    20197028.488                   106136027.855 8
  82703486.556 8        51.600          50.600
 14  1  9  0 15 30.0000000  0  8G02G04G12G14G29G24G31G25
  23269872.633                                    23269876.219   122284044.623 7
  95286272.97244        43.900          27.000
  23576397.703                                    23576405.859   123894822.027 6
  96541441.57543        39.300          21.300
  20986795.945                    20986801.938    20986801.758   110286329.506 8
  85937472.694 8        50.600          48.200
  21877088.852                                    21877095.426   114964886.260 7
  89583027.47345        46.000          30.900
  21850060.711                    21850067.992    21850067.871   114822815.039 7
  89472373.755 7        46.000          44.100
  24104208.625                    24104218.309                   126668433.131 6
  98702764.825 6        39.700          41.500
  22573631.461                    22573637.102    22573637.156   118625453.608 7
  92435280.022 7        44.200          44.300
  20194105.211                    20194114.074                   106120712.514 8
  82691552.621 8        51.800          50.100
 14  1  9  0 16  0.0000000  0  8G02G04G12G14G29G24G31G25
  23260879.820                                    23260883.582   122236788.481 7
  95249450.02044        42.700          28.400
  23582519.938                                    23582527.625   123926995.325 6
  96566511.63643        39.400          20.400
  20998535.930                    20998541.395    20998541.391   110348022.361 8
  85985545.051 7        50.100          47.600
  21887447.016                                    21887453.121   115019318.707 7
  89625442.35645        45.800          31.000
  21832920.203                    21832926.898    21832926.895   114732741.438 7
  89402186.564 7        46.400          44.500
  24124995.633                    24125005.727                   126777669.761 6
  98787884.231 6        39.700          41.300
  22557394.805                    22557400.914    22557400.969   118540130.175 7
  92368794.245 7        44.900          44.700
  20191274.555                    20191283.770                   106105838.320 8
  82679962.360 8        51.800          50.500
 14  1  9  0 16 30.0000000  0  8G02G04G12G14G29G24G31G25
  23251973.203                                    23251976.496   122189980.238 7
  95212976.07644        43.000          28.100
  23588757.734                                    23588765.656   123959774.704 6
  96592053.99643        38.400          19.000
  21010337.797                    21010343.320    21010343.316   110410043.192 8
  86033872.989 8        50.200          48.400
  21897904.398                                    21897910.563   115074272.107 7
  89668263.16744        46.200          29.800
  21815849.477                    21815856.406    21815856.402   114643033.560 7
  89332284.370 7        46.800          44.400
  24145807.586                    24145818.207                   126887037.516 6
  98873105.812 6        39.600          40.000
  22541206.883                    22541212.758    22541212.754   118455060.910 7
  92302506.504 7        44.600          44.200
  20188527.688                    20188536.902                   106091401.986 8
  82668713.254 8        51.900          50.800
 14  1  9  0 17  0.0000000  0  8G02G04G12G14G29G24G31G25
  23243150.977                                    23243154.387   122143622.924 7
  95176853.51744        42.500          28.700
  23595110.461                                    23595119.262   123993160.170 6
  96618068.63143        37.900          20.900
  21022202.398                    21022208.156    21022208.035   110472391.606 8
  86082456.174 7        49.800          47.600
  21908460.367                                    21908467.000   115129745.374 7
  89711489.06445        45.900          30.400
  21798848.516                    21798855.094    21798855.090   114553694.410 7
  89262669.474 7        47.000          44.500
  24166644.602                    24166655.047                   126996536.062 6
  98958429.316 6        39.800          40.400
  22525067.922                    22525073.563    22525073.383   118370248.716 7
  92236419.080 7        45.400          44.300
  20185863.945                    20185873.219                   106077404.537 8
  82657806.162 8        51.600          51.000
 14  1  9  0 17 30.0000000  0  8G02G04G12G14G29G24G31G25
  23234416.563                                    23234419.973   122097720.943 7
  95141085.77544        44.400          29.400
  23601579.883                                    23601587.570   124027153.190 6
  96644556.67943        38.600          19.900
  21034129.148                    21034134.965    21034134.961   110535068.411 8
  86131295.231 7        49.300          47.800
  21919115.750                                    21919122.324   115185739.558 7
  89755120.85945        45.500          31.400
  21781918.641                    21781925.395    21781925.273   114464728.567 7
  89193345.477 7        47.200          44.200
  24187506.414                    24187516.977                   127106166.055 6
  99043855.248 6        37.800          41.100
  22508977.883                    22508984.051    22508983.813   118285698.235 7
  92170535.583 7        44.100          44.100
  20183284.438                    20183293.711                   106063848.679 8
  82647243.168 8        51.500          50.700
 14  1  9  0 18  0.0000000  0  8G02G04G12G14G29G24G31G25
  23225768.266                                    23225771.852   122052274.183 6
  95105672.73044        41.300          28.500
  23608163.422                                    23608170.758   124061750.780 6
  96671515.83543        39.600          21.500
  21046118.148                    21046124.199    21046124.137   110598070.604 8
  86180387.839 7        50.000          47.400
  21929869.727                                    21929875.305   115242250.459 7
  89799155.29045        45.700          30.300
  21765060.523                    21765067.219    21765067.332   114376136.384 7
  89124312.646 7        47.300          44.100
  24208392.789                    24208403.410                   127215923.933 6
  99129380.828 6        39.100          40.200
  22492938.625                    22492944.676    22492944.613   118201409.074 7
  92104855.708 7        45.300          44.300
  20180788.539                    20180797.754                   106050732.555 8
  82637022.805 8        50.700          50.900
 14  1  9  0 18 30.0000000  0  8G02G04G12G14G29G24G31G25
  23217206.609                                    23217210.547   122007285.215 7
  95070616.42244        42.300          29.900
  23614862.023                                    23614868.949   124096952.078 6
  96698945.37143        39.400          20.600
  21058168.711                    21058174.586    21058174.348   110661397.302 8
  86229733.296 7        50.000          47.500
  21940721.383                                    21940727.723   115299276.785 7
  89843591.35945        45.500          30.900
  21748273.570                    21748280.148    21748279.852   114287920.759 7
  89055573.229 7        46.900          44.000
  24229303.953                    24229314.047                   127325808.561 6
  99215005.180 6        39.400          40.200
  22476948.852                    22476954.785    22476954.898   118117384.124 7
  92039381.716 7        44.300          43.900
  20178375.969                    20178385.125                   106038056.913 8
  82627145.685 8        51.400          51.300
 14  1  9  0 19  0.0000000  0  8G02G04G12G14G29G24G31G25
  23208733.148                                    23208736.500   121962755.043 7
  95035917.61344        42.900          29.000
  23621675.766                                    23621682.750   124132755.611 6
  96726844.20643        40.500          20.900
  21070281.047                    21070286.805    21070286.566   110725047.146 8
  86279330.559 7        49.500          47.700
  21951670.922                                    21951676.676   115356815.980 7
  89888427.06745        45.800          30.000
  21731558.883                    21731565.285    21731565.340   114200082.974 7
  88987128.231 7        46.400          45.100
  24250236.453                    24250247.543                   127435818.005 6
  99300726.785 6        37.700          40.200
  22461010.734                    22461016.434    22461016.078   118033624.759 7
  91974114.684 7        43.900          44.200
  20176047.859                    20176056.957                   106025821.062 8
  82617611.244 8        51.600          51.200
 14  1  9  0 19 30.0000000  0  8G02G04G12G14G29G24G31G25
  23200347.211                                    23200350.680   121918686.273 7
  95001578.33744        43.900          29.100
  23628603.563                                    23628610.313   124169160.659 6
  96755211.75943        40.500          21.500
  21082454.297                    21082460.406    21082460.285   110789018.834 8
  86329178.620 7        49.700          47.400
  21962717.594                                    21962723.992   115414866.887 7
  89933661.53144        45.700          29.600
  21714915.352                    21714922.691    21714922.570   114112625.737 7
  88918979.755 7        47.500          44.600
  24271194.445                    24271204.188                   127545951.004 6
  99386544.677 6        38.000          39.800
  22445122.000                    22445127.172    22445127.461   117950133.745 7
  91909056.753 7        45.300          44.300
  20173803.188                    20173812.461                   106014025.931 8
  82608420.235 8        51.100          51.400
 14  1  9  0 20  0.0000000  0  8G02G04G12G14G29G24G31G25
  23192049.555                                    23192052.965   121875079.945 7
  94967599.40344        43.000          29.500
  23635645.086                                    23635651.953   124206165.441 6
  96784046.63143        39.600          20.900
  21094688.844                    21094694.426    21094694.715   110853310.664 8
  86379276.138 7        49.100          47.700
  21973861.180                                    21973867.109   115473426.305 7
  89979292.22745        46.500          30.400
  21698345.766                    21698352.871    21698352.926   114025550.430 7
  88851128.888 7        45.900          44.700
  24292175.531                    24292185.801                   127656205.431 6
  99472457.180 6        38.300          40.400
  22429285.789                    22429291.313    22429291.543   117866912.560 7
  91844209.100 7        43.600          43.900
  20171642.844                    20171651.707                   106002670.853 8
  82599572.112 8        51.600          51.400
 14  1  9  0 20 30.0000000  0  8G02G04G12G14G29G24G31G25
  23183839.414                                    23183843.293   121831937.480 7
  94933981.93544        43.900          29.700
  23642801.047                                    23642807.094   124243768.090 6
  96813347.37043        40.400          20.900
  21106983.813                    21106989.922    21106989.801   110917920.815 8
  86429621.708 7        49.400          47.400
  21985101.102                                    21985107.031   115532491.985 7
  90025317.40745        45.900          30.700
  21681849.211                    21681856.492    21681855.961   113938858.300 7
  88783576.595 7        47.700          44.200
  24313179.266                    24313188.891                   127766579.164 6
  99558462.656 6        37.100          39.000
  22413500.766                    22413506.523    22413506.695   117783962.568 7
  91779572.752 7        45.300          43.900
  20169565.883                    20169574.277                   105991755.241 8
  82591066.412 8        51.900          51.700
 14  1  9  0 21  0.0000000  0  8G02G04G12G14G29G24G31G25
  23175717.945                                    23175721.941   121789260.828 7
  94900727.41444        42.600          29.100
  23650069.539                                    23650076.113   124281967.551 6
  96843113.16543        40.200          20.400
  21119338.953                    21119344.828    21119344.941   110982848.219 8
  86480214.486 8        50.000          48.100
  21996436.477                                    21996443.051   115592062.030 7
  90071735.59744        45.600          29.500
  21665425.523                    21665432.395    21665432.332   113852552.337 8
  88716325.217 7        48.300          45.400
  24334205.133                    24334215.051                   127877070.652 6
  99644559.877 6        37.600          39.400
  22397768.539                    22397773.945    22397773.883   117701286.033 7
  91715149.499 7        45.000          43.900
  20167571.930                    20167580.969                   105981279.511 8
  82582903.495 8        51.400          51.000
 14  1  9  0 21 30.0000000  0  8G02G04G12G14G29G24G31G25
  23167685.914                                    23167690.203   121747052.906 7
  94867838.15344        42.300          29.700
  23657452.711                                    23657459.520   124320763.974 6
  96873344.15043        41.000          19.000
  21131754.508                    21131760.090    21131760.203   111048092.317 8
  86531054.038 8        49.900          48.100
  22007868.133                                    22007874.707   115652136.009 7
  90118546.46144        45.800          29.700
  21649075.828                    21649082.816    21649082.754   113766635.689 8
  88649377.207 7        48.000          44.600
  24355254.148                    24355263.188                   127987679.005 6
  99730748.173 6        38.100          39.500
  22382088.813                    22382093.164    22382093.219   117618885.901 7
  91650941.616 7        45.500          44.300
  20165662.734                    20165671.070                   105971244.809 8
  82575084.224 8        51.500          51.400
 14  1  9  0 22  0.0000000  0  8G02G04G12G14G29G24G31G25
  23159743.711                                    23159748.059   121705315.485 7
  94835315.50144        43.400          29.700
  23664948.438                                    23664955.012   124360155.747 6
  96904039.01443        40.400          19.300
  21144230.156                    21144236.031    21144235.910   111113652.048 8
  86582139.533 8        50.000          48.000
  22019395.680                                    22019401.785   115712710.900 7
  90165747.65145        46.200          30.400
  21632801.039                    21632808.145    21632807.848   113681109.620 8
  88582733.539 7        48.300          44.400
  24376323.117                    24376333.504                   128098403.240 6
  99817026.762 6        37.100          38.800
  22366461.180                    22366466.234    22366466.289   117536764.688 7
  91586951.077 7        44.500          44.500
  20163836.695                    20163845.793                   105961651.115 8
  82567608.596 8        51.500          51.000
 14  1  9  0 22 30.0000000  0  8G02G04G12G14G29G24G31G25
  23151891.070                                    23151894.773   121664048.849 7
  94803159.70445        44.000          30.900
  23672557.422                                    23672563.879   124400140.372 6
  96935195.86543        40.400          19.300
  21156765.289                    21156770.988    21156770.867   111179524.207 8
  86633468.482 7        50.300          47.600
  22031017.070                                    22031023.703   115773783.807 7
  90213336.90644        45.800          29.100
  21616600.453                    21616607.383    21616607.555   113595975.694 7
  88516395.432 7        47.900          44.600
  24397415.180                    24397424.922                   128209240.486 6
  99903393.408 6        37.300          38.400
  22350886.750                    22350892.742    22350892.504   117454922.650 7
  91523178.069 7        44.800          44.300
  20162094.758                    20162103.855                   105952497.073 8
  82560475.507 8        52.200          51.600
 14  1  9  0 23  0.0000000  0  8G02G04G12G14G29G24G31G25
  23144128.047                                    23144132.102   121623255.533 7
  94771372.74744        43.400          28.500
  23680278.703                                    23680285.805   124440717.153 6
  96966814.13143        40.200          19.600
  21169359.750                    21169365.742    21169365.621   111245709.133 8
  86685041.143 7        50.300          47.700
  22042733.727                                    22042739.539   115835353.249 7
  90261313.06844        45.300          29.900
  21600474.938                    21600482.219    21600482.273   113511236.387 7
  88450364.827 7        47.800          44.800
  24418527.836                    24418538.164                   128320189.500 6
  99989847.160 6        36.900          38.800
  22335366.242                    22335371.707    22335371.938   117373362.541 7
  91459624.735 7        44.700          44.100
  20160436.930                    20160446.145                   105943783.716 8
  82553685.844 8        52.100          51.600
 14  1  9  0 23 30.0000000  0  8G02G04G12G14G29G24G31G25
  23136455.703                                    23136459.582   121582935.729 7
  94739954.74744        44.400          29.900
  23688111.852                                    23688119.480   124481883.175 6
  96998891.53242        39.400          17.800
  21182013.375                    21182019.309    21182018.895   111312203.627 8
  86736855.019 7        50.600          47.300
  22054543.508                                    22054549.789   115897415.720 7
  90309673.40744        45.600          29.800
  21584424.977                    21584431.906    21584431.844   113426892.166 7
  88384642.092 7        47.500          45.000
  24439661.180                    24439671.391                   128431247.248 5
 100076385.631 6        35.900          38.200
  22319900.172                    22319905.344    22319905.457   117292085.647 7
  91396292.081 7        44.900          43.900
  20158862.102                    20158871.551                   105935509.473 8
  82547238.365 8        51.900          51.500
 14  1  9  0 24  0.0000000  0  8G02G04G12G14G29G24G31G25
  23128873.781                                    23128877.660   121543093.305 7
  94708908.73744        44.300          28.300
  23696057.930                                    23696065.676   124523639.152 6
  97031428.68443        39.100          19.600
  21194725.789                    21194731.781    21194731.719   111379007.924 8
  86788910.301 7        50.000          47.900
  22066447.813                                    22066453.801   115959971.017 7
  90358417.78444        46.100          28.800
  21568450.438                    21568457.484    21568457.715   113342946.970 8
  88319230.273 7        48.000          44.900
  24460816.781                    24460825.996                   128542413.880 5
 100163008.942 6        35.800          37.900
  22304488.320                    22304493.609    22304493.840   117211095.166 7
  91333182.630 7        44.600          44.300
  20157371.727                    20157380.883                   105927676.366 8
  82541134.679 8        51.300          51.500
 14  1  9  0 24 30.0000000  0  8G02G04G12G14G29G24G31G25
  23121383.039                                    23121386.977   121503729.437 7
  94678235.62845        43.400          30.400
  23704115.742                                    23704123.254   124565983.352 6
  97064424.13043        38.300          18.600
  21207497.133                    21207503.652    21207503.531   111446120.927 8
  86841206.136 7        50.800          47.700
  22078444.656                                    22078451.113   116023016.645 7
  90407544.21344        46.200          29.500
  21552552.742                    21552559.730    21552559.668   113259402.823 8
  88254130.964 7        49.000          45.000
  24481990.438                    24482000.004                   128653687.889 6
 100249715.930 6        36.600          38.100
  22289131.477                    22289136.648    22289136.586   117130393.412 7
  91270298.156 7        45.400          44.300
  20155965.289                    20155974.211                   105920284.143 8
  82535374.489 8        51.700          51.700
 14  1  9  0 25  0.0000000  0  8G02G04G12G14G29G24G31G25
  23113984.133                                    23113987.367   121464844.461 7
  94647935.67745        43.600          30.200
  23712284.391                                    23712292.371   124608912.894 6
  97097875.69943        39.300          18.600
  21220326.563                    21220332.496    21220332.199   111513540.189 8
  86893740.616 7        50.000          47.600
  22090535.141                                    22090541.129   116086549.254 7
  90457050.11244        45.700          28.600
  21536731.477                    21536738.406    21536738.285   113176260.290 7
  88189344.598 7        46.300          44.900
  24503185.195                    24503195.172                   128765065.870 5
 100336503.927 6        35.900          37.800
  22273829.711                    22273834.766    22273834.762   117049980.641 7
  91207638.863 7        43.200          44.000
  20154642.125                    20154651.457                   105913331.315 8
  82529956.673 8        51.400          50.800
 14  1  9  0 25 30.0000000  0  8G02G04G12G14G29G24G31G25
  23106675.492                                    23106679.898   121426442.863 7
  94618012.38545        43.200          30.400
  23720566.422                                    23720573.289   124652429.329 6
  97131784.62843        39.600          20.600
  21233214.336                    21233220.563    21233220.559   111581266.665 8
  86946514.486 7        50.100          47.600
  22102717.680                                    22102724.020   116150569.362 7
  90506935.87144        45.700          29.600
  21520987.234                    21520994.340    21520994.219   113093524.353 7
  88124875.065 7        46.200          45.800
  24524400.383                    24524409.539                   128876549.185 5
 100423374.004 6        35.800          37.200
  22258583.250                    22258588.598    22258588.652   116969862.127 7
  91145208.854 7        44.500          44.300
  20153403.008                    20153412.105                   105906820.965 8
  82524883.664 8        51.000          51.000
 14  1  9  0 26  0.0000000  0  8G02G04G12G14G29G24G31G25
  23099459.945                                    23099463.766   121388522.090 7
  94588463.74845        43.500          30.000
  23728958.258                                    23728964.949   124696526.983 6
  97166146.42843        40.500          20.400
  21246159.602                    21246165.184    21246165.121   111649294.708 8
  86999523.346 7        49.900          47.300
  22114992.008                                    22114997.352   116215070.496 7
  90557196.46444        46.400          28.100
