     2.11           OBSERVATION DATA    G (GPS)             RINEX VERSION / TYPE
teqc  2013Mar15                         20140111 01:02:41UTCPGM / RUN BY / DATE
Linux 2.4.20-8|Pentium IV|gcc -static|Linux|486/DX+         COMMENT
   0.033      (antenna height)                              COMMENT
 +55.21279000 (latitude)                                    COMMENT
  -1.68549700 (longitude)                                   COMMENT
0144.425      (elevation)                                   COMMENT
BIT 2 OF LLI FLAGS DATA COLLECTED UNDER A/S CONDITION       COMMENT
MORP (COGO code)                                            COMMENT
MORP                                                        MARKER NAME
13299S001                                                   MARKER NUMBER
Matt King           NCL                                     OBSERVER / AGENCY
4843K3347           TRIMBLE NETR8       4.19                REC # / TYPE / VERS
221                 AOAD/M_T        NONE                    ANT # / TYPE
  3645667.8584  -107277.2886  5215053.4919                  APPROX POSITION XYZ
        0.0330        0.0000        0.0000                  ANTENNA: DELTA H/E/N
     1     1                                                WAVELENGTH FACT L1/2
     8    C1    P1    C2    P2    L1    L2    S1    S2      # / TYPES OF OBSERV
    30.0000                                                 INTERVAL
    16                                                      LEAP SECONDS
Forced Modulo Decimation to 30 seconds                      COMMENT
 SNR is mapped to RINEX snr flag value [0-9]                COMMENT
  L1 & L2: min(max(int(snr_dBHz/6), 0), 9)                  COMMENT
  2014     1    10     0     0    0.0000000     GPS         TIME OF FIRST OBS
                                                            END OF HEADER
 14  1 10  0  0  0.0000000  0  9G04G02G14G12G29G32G24G31G25
  23468828.602                                    23468835.234   123329505.207 6
  96100957.50743        41.700          19.300
  23498093.320                                    23498096.730   123483264.096 6
  96220790.91544        41.700          26.800
  21668833.102                                    21668838.445   113870430.102 7
  88730263.77445        47.800          31.300
  20735794.563                    20735800.613    20735800.434   108967483.739 8
  84909678.644 8        50.500          49.100
  22262284.148                    22262290.727    22262290.547   116989074.744 7
  91160379.055 7        44.900          42.700
  25170966.578                                                   132274460.095 5
                        33.200
  23639376.359                    23639385.867                   124225761.412 7
  96799374.447 7        42.400          43.200
  22959537.078                    22959542.895    22959542.773   120653394.123 7
  94015488.615 7        43.200          42.200
  20281314.836                    20281323.523                   106579023.029 8
  83048668.485 8        52.100          50.100
 14  1 10  0  0 30.0000000  0  9G04G02G14G12G29G32G24G31G25
  23472266.938                                    23472273.980   123347571.848 7
  96115035.41843        42.500          21.300
  23487239.586                                    23487242.820   123426224.877 6
  96176344.80144        40.900          25.400
  21676839.914                                    21676845.668   113912504.858 8
  88763049.27345        48.100          31.900
  20746027.883                    20746033.172    20746033.285   109021258.464 8
  84951581.027 8        50.900          49.100
  22243649.586                    22243655.578    22243655.691   116891148.608 7
  91084073.006 7        45.000          42.300
  25179172.922                                                   132317599.205 5
                        31.600
  23659503.000                    23659512.801                   124331529.918 6
  96881791.432 7        41.600          42.600
  22942283.266                    22942289.199    22942289.020   120562723.644 7
  93944836.300 6        43.800          41.800
  20276582.328                    20276591.250                   106554154.942 8
  83029290.755 8        52.100          50.300
 14  1 10  0  1  0.0000000  0  9G04G02G14G12G29G32G24G31G25
  23475824.461                                    23475831.152   123366264.453 7
  96129601.07243        42.300          22.000
  23476461.398                                    23476465.512   123369588.293 6
  96132212.42644        41.900          26.200
  21684952.805                                    21684958.441   113955140.595 8
  88796271.88845        48.200          32.500
  20756328.891                    20756334.414    20756334.410   109075393.159 8
  84993763.901 8        50.700          48.500
  22225074.313                    22225081.594    22225081.414   116793538.573 7
  91008013.281 7        44.500          42.900
  25187469.234                                                   132361197.187 5
                        31.500
  23679662.758                    23679672.266                   124437467.983 6
  96964340.544 7        40.900          43.200
  22925069.195                    22925075.012    22925074.891   120472263.640 7
  93874347.997 7        43.800          42.400
  20271932.695                    20271941.676                   106529722.075 8
  83010252.155 8        52.000          50.000
 14  1 10  0  1 30.0000000  0  9G04G02G14G12G29G32G24G31G25
  23479500.938                                    23479507.160   123385584.180 7
  96144655.41243        42.500          21.300
  23465760.992                                    23465764.637   123313358.135 7
  96088396.73744        42.600          24.300
  21693173.336                                    21693178.738   113998337.811 7
  88829932.00745        47.600          32.300
  20766699.305                    20766704.770    20766704.590   109129889.089 8
  85036228.261 8        50.700          48.800
  22206560.867                    22206567.621    22206567.500   116696249.008 7
  90932203.261 7        45.400          43.100
  25195852.523                                                   132405253.840 5
                        30.300
  23699853.977                    23699863.543                   124543576.122 6
  97047022.193 7        41.100          42.800
  22907895.672                    22907901.840    22907901.777   120382017.943 7
  93804026.679 7        44.200          42.800
  20267366.461                    20267375.734                   106505726.443 8
  82991554.258 8        52.300          50.700
 14  1 10  0  2  0.0000000  0  9G04G02G14G12G29G32G24G31G25
  23483296.367                                    23483303.176   123405529.229 7
  96160197.00243        42.600          22.800
  23455138.508                                    23455142.738   123257535.543 6
  96044898.65344        41.400          26.200
  21701499.508                                    21701505.555   114042094.229 7
  88864027.87545        47.300          32.100
  20777137.430                    20777143.129    20777143.125   109184742.951 8
  85078971.523 8        50.800          48.900
  22188108.594                    22188115.055    22188115.168   116599280.938 7
  90856643.754 7        45.800          42.600
  25204323.188                                                   132449766.075 5
                        31.300
  23720077.922                    23720087.254                   124649851.037 7
  97129833.789 7        42.000          42.600
  22890763.945                    22890768.766    22890768.820   120291987.282 7
  93733872.921 7        44.600          42.600
  20262883.539                    20262891.992                   106482167.050 8
  82973196.292 8        51.500          50.800
 14  1 10  0  2 30.0000000  0  9G04G02G14G12G29G32G24G31G25
  23487210.516                                    23487217.266   123426098.748 7
  96176225.17743        43.200          22.800
  23444593.516                                    23444597.277   123202122.260 6
  96001719.51244        41.100          27.900
  21709932.320                                    21709938.074   114086407.351 7
  88898557.52845        46.800          32.100
  20787643.617                    20787649.375    20787649.313   109239953.118 8
  85121992.435 8        50.700          48.400
  22169717.344                    22169724.332    22169723.918   116502635.929 7
  90781335.988 7        46.000          42.800
  25212879.617                                                   132494731.686 4
                        29.600
  23740332.711                    23740341.691                   124756290.957 6
  97212773.963 7        41.500          42.700
  22873672.953                    22873678.359    22873678.414   120202173.268 7
  93663887.984 7        44.100          42.800
  20258483.773                    20258492.344                   106459043.811 8
  82955178.179 8        51.800          50.300
 14  1 10  0  3  0.0000000  0  9G04G02G14G12G29G32G24G31G25
  23491243.977                                    23491250.258   123447292.181 7
  96192739.56643        42.700          23.400
  23434127.461                                    23434130.813   123147120.807 7
  95958861.26144        42.300          27.100
  21718470.336                                    21718475.797   114131276.147 7
  88933520.19545        47.400          32.300
  20798217.633                    20798222.863    20798222.918   109295518.563 8
  85165290.183 8        50.200          48.500
  22151388.688                    22151395.559    22151395.320   116406316.778 7
  90706282.137 7        45.000          42.800
  25221522.508                                                   132540149.039 5
                        30.500
  23760618.352                    23760627.918                   124862894.725 6
  97295841.843 7        41.200          42.900
  22856623.555                    22856629.078    22856628.957   120112577.917 7
  93594073.432 7        43.900          43.200
  20254166.188                    20254175.227                   106436357.220 8
  82937500.316 8        51.700          50.500
 14  1 10  0  3 30.0000000  0  8G04G02G14G12G29G24G31G25
  23495395.242                                    23495402.168   123469110.298 7
  96209740.70443        42.400          22.300
  23423740.352                                    23423743.176   123092534.102 7
  95916326.20244        42.400          27.300
  21727114.344                                    21727119.980   114176700.088 7
  88968915.45445        47.300          31.200
  20808858.547                    20808864.598    20808864.535   109351439.172 8
  85208864.679 8        50.400          48.700
  22133122.727                    22133128.953    22133128.949   116310326.905 7
  90631484.870 7        44.900          42.900
  23780935.625                    23780944.430                   124969661.199 6
  97379036.503 7        41.100          42.500
  22839616.109                    22839621.633    22839621.512   120023204.173 7
  93524431.559 7        44.200          42.900
  20249932.320                    20249941.066                   106414108.573 8
  82920163.708 8        52.100          50.700
 14  1 10  0  4  0.0000000  0  8G04G02G14G12G29G24G31G25
  23499665.477                                    23499672.168   123491550.370 7
  96227226.45343        42.300          22.300
  23413431.570                                    23413434.922   123038363.004 7
  95874114.98744        42.200          27.300
  21735863.273                                    21735869.145   114222675.636 7
  89004740.54845        47.200          31.600
  20819566.906                    20819572.430    20819572.250   109407711.444 8
  85252713.204 8        50.300          48.400
  22114918.711                    22114925.406    22114925.344   116214666.655 7
  90556944.435 7        45.200          43.100
  23801282.000                    23801291.977                   125076587.687 6
  97462355.829 7        41.900          42.500
  22822651.133                    22822656.656    22822656.652   119934052.487 7
  93454962.716 7        44.100          43.400
  20245781.664                    20245790.762                   106392296.306 8
  82903167.135 8        51.800          51.300
 14  1 10  0  4 30.0000000  0  8G04G02G14G12G29G24G31G25
  23504053.734                                    23504060.719   123514611.774 7
  96245196.37443        42.100          22.900
  23403202.242                                    23403205.359   122984609.174 6
  95832228.92344        41.800          26.800
  21744716.328                                    21744722.551   114269201.373 7
  89040994.35745        46.700          31.500
  20830341.898                    20830347.363    20830347.418   109464334.026 8
  85296834.687 8        50.300          48.400
  22096778.086                    22096784.723    22096784.602   116119337.958 7
  90482662.358 7        44.900          43.400
  23821660.672                    23821670.180                   125183671.999 6
  97545798.150 7        41.100          42.900
  22805728.547                    22805734.422    22805734.184   119845124.471 7
  93385668.162 7        44.400          43.000
  20241714.172                    20241723.328                   106370920.504 8
  82886510.664 8        51.900          50.800
 14  1 10  0  5  0.0000000  0  8G04G02G14G12G29G24G31G25
  23508560.336                                    23508567.613   123538294.471 6
  96263650.42743        41.100          22.300
  23393053.563                                    23393055.918   122931274.866 6
  95790669.74044        40.900          27.000
  21753674.367                                    21753680.355   114316276.080 7
  89077675.93845        47.200          31.300
  20841183.570                    20841189.152    20841188.855   109521306.292 8
  85341228.659 8        50.400          48.800
  22078701.867                    22078707.859    22078708.031   116024344.194 7
  90408641.252 7        45.800          43.500
  23842067.367                    23842077.168                   125290913.278 6
  97629362.780 7        41.100          42.600
  22788849.680                    22788855.203    22788855.434   119756423.170 7
  93316550.270 7        44.600          43.400
  20237729.641                    20237738.621                   106349982.142 8
  82870195.063 8        51.900          50.900
 14  1 10  0  5 30.0000000  0  8G04G02G14G12G29G24G31G25
  23513184.828                                    23513192.223   123562599.067 6
  96282589.06743        40.200          22.000
  23382984.883                                    23382987.766   122878364.256 7
  95749440.71744        42.800          26.400
  21762737.430                                    21762743.242   114363899.700 7
  89114785.22445        47.000          30.900
  20852091.758                    20852097.398    20852097.160   109578628.884 8
  85385895.610 8        50.200          48.800
  22060688.891                    22060695.703    22060695.582   115929688.537 7
  90334883.610 7        45.200          43.200
  23862504.992                    23862514.617                   125398311.384 6
  97713049.591 7        41.500          42.600
  22772014.250                    22772019.363    22772019.535   119667951.234 7
  93247611.102 7        44.700          43.500
  20233828.805                    20233837.727                   106329482.739 8
  82854221.502 8        52.400          51.000
 14  1 10  0  6  0.0000000  0  8G04G02G14G12G29G24G31G25
  23517927.914                                    23517935.074   123587522.764 6
  96302010.10043        40.700          21.800
  23372996.250                                    23373000.363   122825877.169 7
  95708541.72644        42.500          27.700
  21771903.500                                    21771909.605   114412068.405 7
  89152319.26245        46.300          30.800
  20863065.367                    20863071.477    20863071.297   109636297.637 8
  85430832.288 8        50.300          48.600
  22042741.211                    22042747.730    22042747.727   115835371.344 7
  90261389.713 7        45.800          43.700
  23882971.633                    23882981.199                   125505862.760 6
  97796855.837 7        40.900          42.300
  22755221.875                    22755227.809    22755227.980   119579708.828 7
  93178850.794 7        44.900          43.700
  20230010.898                    20230019.938                   106309420.474 8
  82838588.561 8        51.700          50.900
 14  1 10  0  6 30.0000000  0  8G04G02G14G12G29G24G31G25
  23522789.305                                    23522795.879   123613066.386 6
  96321914.23043        40.400          22.000
  23363089.695                                    23363092.930   122773816.878 7
  95667975.28744        42.900          28.700
  21781173.414                                    21781179.637   114460781.930 7
  89190277.83545        45.800          31.500
  20874105.602                    20874111.008    20874111.063   109694313.183 8
  85476039.208 8        50.600          48.800
  22024858.148                    22024865.078    22024864.898   115741396.700 7
  90188162.721 7        46.000          43.800
  23903466.234                    23903476.445                   125613566.976 6
  97880781.178 7        40.800          42.600
  22738474.102                    22738479.566    22738479.621   119491699.523 7
  93110272.111 7        45.200          43.800
  20226276.695                    20226285.910                   106289797.018 8
  82823297.557 8        52.300          51.000
 14  1 10  0  7  0.0000000  0  8G04G02G14G12G29G24G31G25
  23527767.195                                    23527774.004   123639227.888 6
  96342299.81843        39.800          21.800
  23353264.430                                    23353267.898   122722184.660 7
  95627742.39444        42.700          27.000
  21790545.992                                    21790552.625   114510037.545 7
  89228658.81345        46.300          30.200
  20885210.820                    20885216.813    20885216.633   109752672.500 8
  85521513.995 8        50.200          48.800
  22007040.859                    22007047.203    22007047.199   115647765.102 7
  90115203.058 7        45.100          43.300
  23923990.352                    23923999.977                   125721421.378 6
  97964823.546 7        40.500          42.200
  22721771.188                    22721776.652    22721776.648   119403924.010 7
  93041875.615 7        45.300          44.000
  20222625.680                    20222634.777                   106270611.384 8
  82808347.713 8        52.200          51.300
 14  1 10  0  7 30.0000000  0  8G04G02G14G12G29G24G31G25
  23532863.188                                    23532870.172   123666006.991 6
  96363166.63343        40.600          21.100
  23343521.055                                    23343524.523   122670983.003 7
  95587845.02944        42.100          26.900
  21800022.219                                    21800028.266   114559834.076 7
  89267461.29645        46.500          30.100
  20896381.414                    20896387.113    20896387.168   109811374.596 8
  85567255.885 8        50.400          49.300
  21989289.000                    21989295.578    21989295.633   115554479.400 7
  90042512.915 7        46.000          43.900
  23944543.070                    23944553.047                   125829424.678 6
  98048981.942 7        40.800          42.000
  22705112.898                    22705118.598    22705118.652   119316384.860 7
  92973663.297 7        44.700          44.000
  20219058.594                    20219067.809                   106251864.328 8
  82793739.621 8        51.900          51.400
 14  1 10  0  8  0.0000000  0  8G04G02G14G12G29G24G31G25
  23538076.773                                    23538083.523   123693402.500 6
  96384513.78543        41.300          21.500
  23333859.734                                    23333863.203   122620213.577 7
  95548284.46044        43.300          26.800
  21809601.336                                    21809606.563   114610169.264 7
  89306683.50445        45.700          31.900
  20907617.164                    20907623.156    20907623.152   109870418.699 8
  85613264.269 8        50.300          48.600
  21971603.430                    21971610.359    21971610.238   115461541.598 7
  89970093.856 7        46.000          44.500
  23965123.445                    23965133.715                   125937574.977 6
  98133254.881 7        40.800          42.100
  22688499.961                    22688505.602    22688505.598   119229083.661 7
  92905636.395 7        44.500          43.700
  20215574.305                    20215583.578                   106233555.572 8
  82779473.052 8        52.200          50.900
 14  1 10  0  8 30.0000000  0  8G04G02G14G12G29G24G31G25
  23543406.914                                    23543413.020   123721412.840 7
  96406340.02443        42.100          21.700
  23324281.859                                    23324284.801   122569877.641 7
  95509061.66344        42.700          26.800
  21819281.688                                    21819287.090   114661040.764 7
  89346323.61945        45.900          31.400
  20918917.477                    20918923.410    20918923.406   109929802.442 8
  85659537.314 8        50.000          48.400
  21953985.063                    21953991.465    21953991.227   115368953.383 7
  89897947.205 7        45.800          43.700
  23985731.703                    23985741.211                   126045870.133 6
  98217640.690 7        39.900          42.000
  22671932.445                    22671938.203    22671938.258   119142021.719 7
  92837795.927 7        44.600          44.600
  20212173.695                    20212182.676                   106215684.645 8
  82765547.651 8        51.700          50.400
 14  1 10  0  9  0.0000000  0  8G04G02G14G12G29G24G31G25
  23548854.773                                    23548860.996   123750040.205 7
  96428647.06343        42.400          21.700
  23314786.266                                    23314789.207   122519980.286 7
  95470180.63144        44.100          27.600
  21829064.242                                    21829070.113   114712449.923 7
  89386382.69545        46.500          30.200
  20930282.852                    20930288.199    20930288.254   109989527.307 8
  85706076.164 8        50.300          48.800
  21936433.555                    21936440.133    21936439.953   115276719.699 7
  89826076.818 7        45.900          44.100
  24006367.273                    24006376.430                   126154311.818 6
  98302140.681 7        40.600          42.000
  22655411.641                    22655417.633    22655417.453   119055204.335 7
  92770146.017 7        44.400          44.300
  20208856.992                    20208865.797                   106198254.812 8
  82751965.959 8        52.200          51.000
 14  1 10  0  9 30.0000000  0  8G04G02G14G12G29G24G31G25
  23554418.984                                    23554425.441   123779281.616 7
  96451432.58243        42.000          22.300
  23305374.914                                    23305378.031   122470521.346 7
  95431641.21844        43.900          26.900
  21838948.539                                    21838954.586   114764392.571 7
  89426857.46945        46.100          31.500
  20941712.422                    20941718.238    20941718.059   110049589.606 8
  85752877.957 8        50.200          48.100
  21918949.195                    21918955.246    21918955.770   115184840.484 7
  89754482.638 7        46.100          43.700
  24027029.703                    24027039.680                   126262895.714 6
  98386751.484 6        40.900          41.600
  22638937.609                    22638943.191    22638943.012   118968630.873 7
  92702686.185 7        44.400          44.300
  20205623.563                    20205632.660                   106181264.012 8
  82738726.374 8        52.600          50.900
 14  1 10  0 10  0.0000000  0  8G04G02G14G12G29G24G31G25
  23560099.461                                    23560106.094   123809134.926 7
  96474694.89843        42.200          22.000
  23296046.750                                    23296049.457   122421501.584 7
  95393444.02944        43.000          28.900
  21848933.633                                    21848939.973   114816866.132 7
  89467745.94645        46.500          31.300
  20953205.805                    20953211.445    20953211.383   110109987.301 8
  85799941.087 7        50.600          47.800
  21901532.727                    21901539.246    21901539.242   115093317.051 7
  89683165.689 7        46.000          43.900
  24047719.125                    24047729.219                   126371619.360 6
  98471471.166 6        40.900          41.500
  22622509.297                    22622515.523    22622515.578   118882302.279 7
  92635417.162 7        44.300          44.700
  20202473.758                    20202482.621                   106164711.353 8
  82725828.197 8        51.900          50.700
 14  1 10  0 10 30.0000000  0  8G04G02G14G12G29G24G31G25
  23565897.500                                    23565904.016   123839601.035 6
  96498434.75043        40.600          20.900
  23286802.305                                    23286805.832   122372925.007 7
  95355592.18744        43.500          27.800
  21859019.977                                    21859025.965   114869870.568 7
  89509048.08945        46.000          31.300
  20964763.117                    20964768.816    20964768.520   110170721.225 8
  85847266.224 7        50.300          47.800
  21884185.789                    21884191.430    21884191.484   115002153.720 7
  89612129.345 7        45.400          43.800
  24068435.750                    24068445.023                   126480483.284 6
  98556300.148 6        40.900          41.100
  22606129.508                    22606135.207    22606134.910   118796222.639 7
  92568342.119 7        44.200          44.600
  20199408.164                    20199416.676                   106148598.878 8
  82713273.022 8        52.700          50.800
 14  1 10  0 11  0.0000000  0  8G04G02G14G12G29G24G31G25
  23571810.781                                    23571817.238   123870677.809 6
  96522650.39943        40.600          20.600
  23277643.695                                    23277646.930   122324792.380 7
  95318086.26444        43.700          28.400
  21869207.461                                    21869213.508   114923402.587 7
  89550761.34045        45.800          31.400
  20976383.961                    20976389.543    20976389.363   110231788.191 8
  85894850.864 8        50.800          48.400
  21866906.133                    21866912.887    21866912.590   114911351.082 7
  89541374.051 7        46.100          44.300
  24089178.000                    24089187.742                   126589484.323 6
  98641235.955 6        40.600          41.000
  22589796.813                    22589802.570    22589802.273   118710392.766 7
  92501461.700 7        45.400          44.000
  20196425.039                    20196434.254                   106132925.439 8
  82701059.956 8        52.000          50.900
 14  1 10  0 11 30.0000000  0  8G04G02G14G12G29G24G31G25
  23577840.609                                    23577847.770   123902365.178 6
  96547341.85443        40.200          21.100
  23268569.070                                    23268572.305   122277106.724 7
  95280928.63444        43.700          28.600
  21879494.234                                    21879500.164   114977461.287 7
  89592884.99445        45.600          31.200
  20988067.984                    20988073.273    20988073.152   110293188.123 8
  85942694.962 8        51.200          48.300
  21849696.258                    21849702.836    21849702.891   114820912.314 7
  89470902.296 7        46.800          44.500
  24109945.984                    24109955.551                   126698621.472 6
  98726277.795 6        39.700          41.600
  22573511.602                    22573516.656    22573516.770   118624815.481 7
  92434778.107 7        43.900          43.800
  20193526.508                    20193535.723                   106117692.187 8
  82689189.890 8        52.200          51.100
 14  1 10  0 12  0.0000000  0  8G04G02G14G12G29G24G31G25
  23583985.320                                    23583994.121   123934660.689 6
  96572507.16743        38.700          19.600
  23259579.984                                    23259583.160   122229868.106 7
  95244119.33944        43.900          28.600
  21889880.219                                    21889886.793   115032043.540 7
  89635416.61245        46.800          30.700
  20999814.594                    20999820.293    20999819.996   110354918.070 8
  85990796.215 8        50.100          48.400
  21832555.078                    21832561.598    21832561.652   114730838.035 7
  89400714.557 7        46.300          44.400
  24130739.813                    24130749.555                   126807892.398 6
  98811423.910 6        40.300          41.100
  22557274.969                    22557281.078    22557280.840   118539491.412 7
  92368291.828 7        44.800          44.900
  20190711.281                    20190719.852                   106102897.736 8
  82677661.754 8        51.500          50.600
 14  1 10  0 12 30.0000000  0  8G04G02G14G12G29G24G31G25
  23590246.797                                    23590254.660   123967563.143 6
  96598145.44543        38.600          19.300
  23250676.508                                    23250679.449   122183078.622 7
  95207660.03544        43.100          29.500
  21900367.047                                    21900372.566   115087147.411 7
  89678354.68545        46.400          30.900
  21011624.164                    21011629.395    21011629.332   110416976.684 8
  86039153.575 8        50.000          48.200
  21815484.688                    21815491.266    21815491.027   114641130.262 7
  89330812.408 7        46.300          44.100
  24151558.375                    24151568.176                   126917294.874 6
  98896672.514 6        40.200          40.900
  22541086.555                    22541092.781    22541092.777   118454422.347 7
  92302004.249 7        44.300          45.000
  20187979.422                    20187988.285                   106088542.042 8
  82666475.495 8        51.100          50.800
 14  1 10  0 13  0.0000000  0  8G04G02G14G12G29G24G31G25
  23596623.898                                    23596631.117   124001072.828 6
  96624256.86843        38.100          19.900
  23241858.445                                    23241861.563   122136741.238 7
  95171553.00444        43.200          28.800
  21910951.992                                    21910958.215   115142772.214 7
  89721698.66845        46.300          30.700
  21023495.930                    21023501.512    21023501.391   110479364.090 8
  86087767.129 8        49.800          48.300
  21798483.969                    21798490.313    21798490.426   114551792.874 7
  89261198.868 7        46.200          44.300
  24172402.359                    24172411.516                   127026828.729 6
  98982023.489 6        39.500          40.500
  22524948.367                    22524953.891    22524953.887   118369611.922 7
  92235918.210 7        45.000          43.900
  20185331.211                    20185340.191                   106074626.880 8
  82655632.515 8        51.100          50.300
 14  1 10  0 13 30.0000000  0  8G04G02G14G12G29G24G31G25
  23603116.109                                    23603123.270   124035189.291 6
  96650841.10743        39.700          20.400
  23233127.102                                    23233130.219   122090858.741 7
  95135800.42444        44.100          28.800
  21921635.836                                    21921641.473   115198916.625 7
  89765447.55945        46.200          31.100
  21035429.883                    21035435.230    21035435.109   110542079.661 8
  86136636.406 7        50.300          47.800
  21781555.023                    21781561.133    21781561.129   114462828.492 7
  89191875.985 7        47.100          45.000
  24193270.570                    24193280.723                   127136492.935 6
  99067475.986 6        39.400          40.400
  22508858.641                    22508864.516    22508864.629   118285062.469 7
  92170035.528 7        44.300          44.300
  20182767.383                    20182776.246                   106061152.756 8
  82645133.202 8        51.700          51.400
 14  1 10  0 14  0.0000000  0  8G04G02G14G12G29G24G31G25
  23609723.141                                    23609730.535   124069909.098 6
  96677895.48143        39.400          21.100
  23224482.328                                    23224485.914   122045430.502 7
  95100401.81844        43.600          29.800
  21932417.984                                    21932423.680   115255576.362 7
  89809597.98745        45.100          31.100
  21047426.180                    21047431.820    21047431.758   110605119.501 8
  86185758.357 8        49.500          48.100
  21764696.547                    21764703.066    21764703.004   114374236.740 7
  89122843.465 7        46.600          44.000
  24214163.094                    24214172.660                   127246284.029 6
  99153027.340 6        38.100          41.000
  22492819.266                    22492825.375    22492825.371   118200773.822 7
  92104356.070 7        44.300          44.300
  20180286.523                    20180296.207                   106048117.403 8
  82634975.778 8        51.300          51.200
 14  1 10  0 14 30.0000000  0  8G04G02G14G12G29G24G31G25
  23616445.352                                    23616452.160   124105231.970 6
  96705419.81543        39.600          21.500
  23215924.469                                    23215928.230   122000459.701 7
  95065359.64945        43.500          30.200
  21943297.563                                    21943303.961   115312750.438 7
  89854149.19645        45.700          30.400
  21059483.563                    21059489.789    21059489.668   110668483.336 8
  86235132.765 7        50.300          47.500
  21747909.602                    21747916.121    21747915.824   114286021.058 7
  89054103.981 7        46.600          44.500
  24235080.469                    24235089.684                   127356200.951 6
  99238676.769 6        38.300          40.100
  22476829.070                    22476835.238    22476835.059   118116748.975 7
  92038882.160 7        44.400          44.700
  20177889.820                    20177898.977                   106035522.035 8
  82625161.209 8        51.400          51.200
 14  1 10  0 15  0.0000000  0  8G04G02G14G12G29G24G31G25
  23623282.109                                    23623288.508   124141157.821 6
  96733413.98543        40.200          20.400
  23207454.359                                    23207458.004   121955949.007 7
  95030676.01445        44.100          30.000
  21954275.203                                    21954280.957   115370437.924 7
  89899100.47545        45.900          30.800
  21071603.250                    21071608.715    21071608.418   110732170.621 8
  86284759.225 7        49.300          47.800
  21731195.070                    21731201.004    21731201.059   114198184.072 7
  88985659.590 7        46.500          44.600
  24256019.945                    24256030.391                   127466242.879 6
  99324423.629 6        37.900          40.600
  22460890.914                    22460896.906    22460896.844   118032990.874 7
  91973616.113 7        43.900          44.300
  20175577.211                    20175586.191                   106023367.577 8
  82615690.199 8        52.100          51.600
 14  1 10  0 15 30.0000000  0  8G04G02G14G12G29G24G31G25
  23630232.773                                    23630238.938   124177683.686 6
  96761875.68843        40.000          21.300
  23199071.359                                    23199075.531   121911898.452 7
  94996350.92044        45.000          29.400
  21965350.336                                    21965355.914   115428635.147 7
  89944448.95445        45.800          30.200
  21083783.320                    21083789.137    21083789.133   110796178.497 8
  86334635.489 7        49.300          47.700
  21714552.297                    21714558.875    21714558.930   114110726.507 7
  88917510.840 7        47.700          44.800
  24276983.164                    24276994.078                   127576406.964 6
  99410265.659 6        37.400          40.200
  22445003.547                    22445009.422    22445009.242   117949500.165 7
  91908558.422 7        45.000          43.800
  20173347.648                    20173356.629                   106011652.598 8
  82606561.642 8        52.300          51.800
 14  1 10  0 16  0.0000000  0  8G04G02G14G12G29G24G31G25
  23637297.984                                    23637303.563   124214809.710 6
  96790805.03943        40.100          20.900
  23190777.688                                    23190781.332   121868311.179 7
  94962386.82645        43.900          30.000
  21976521.344                                    21976527.918   115487341.396 7
  89990194.06244        45.500          29.100
  21096024.750                    21096030.742    21096030.563   110860507.384 8
  86384761.890 8        49.100          48.200
  21697982.164                    21697988.215    21697988.387   114023651.808 7
  88849660.439 7        46.300          44.500
  24297970.648                    24297980.332                   127686692.915 6
  99496202.669 6        38.100          39.900
  22429167.047                    22429171.984    22429171.980   117866280.024 7
  91843711.562 7        43.700          44.100
  20171202.266                    20171210.895                   106000378.490 8
  82597776.617 8        52.100          51.800
 14  1 10  0 16 30.0000000  0  8G04G02G14G12G29G24G31G25
  23644476.344                                    23644482.391   124252534.573 6
  96820201.06743        41.100          21.500
  23182571.492                                    23182575.547   121825188.704 7
  94928784.91345        42.500          30.200
  21987789.078                                    21987795.125   115546554.230 7
  90036333.92245        45.800          30.000
  21108326.719                    21108332.711    21108332.766   110925155.305 8
  86435136.897 7        50.200          47.800
  21681485.484                    21681492.121    21681492.352   113936961.583 7
  88782109.621 7        47.600          44.600
  24318980.227                    24318990.262                   127797098.625 6
  99582233.016 6        38.300          40.000
  22413382.570                    22413388.270    22413388.090   117783331.941 7
  91779076.696 7        45.200          44.700
  20169140.898                    20169149.527                   105989544.882 8
  82589334.840 8        51.400          51.600
 14  1 10  0 17  0.0000000  0  8G04G02G14G12G29G24G31G25
  23651768.383                                    23651774.781   124290855.673 7
  96850061.65043        42.000          20.400
  23174454.523                                    23174457.758   121782531.832 7
  94895545.80444        43.800          29.800
  21999152.758                                    21999158.922   115606270.677 7
  90082866.20144        45.600          29.800
  21120689.164                    21120694.863    21120694.625   110990119.424 8
  86485758.285 8        49.800          48.200
  21665062.117                    21665068.813    21665068.926   113850656.959 7
  88714859.279 7        47.900          44.500
  24340011.391                    24340022.480                   127907621.112 6
  99668354.336 6        37.900          40.000
  22397649.313                    22397655.773    22397655.652   117700657.186 7
  91714654.812 7        45.200          44.500
  20167163.000                    20167171.512                   105979150.858 8
  82581235.601 8        51.900          51.200
 14  1 10  0 17 30.0000000  0  8G04G02G14G12G29G24G31G25
  23659174.102                                    23659180.148   124329772.834 6
  96880386.73143        41.400          20.100
  23166426.008                                    23166430.121   121740343.498 7
  94862671.79744        44.200          29.400
  22010612.055                                    22010618.453   115666489.822 7
  90129790.19045        45.700          30.100
  21133111.906                    21133117.723    21133117.602   111055400.403 8
  86536626.583 7        50.000          47.700
  21648713.148                    21648719.551    21648719.430   113764741.079 7
  88647911.846 7        47.200          44.200
  24361065.961                    24361075.703                   128018260.230 6
  99754566.583 6        37.700          39.200
  22381970.242                    22381976.117    22381975.938   117618259.035 7
  91650448.463 7        45.200          43.800
  20165268.922                    20165277.258                   105969197.647 8
  82573479.850 8        51.900          50.800
 14  1 10  0 18  0.0000000  0  8G04G02G14G12G29G24G31G25
  23666693.023                                    23666698.660   124369283.935 6
  96911174.59043        41.100          19.600
  23158487.508                                    23158490.742   121698624.337 7
  94830163.37344        43.300          29.900
  22022166.273                                    22022172.496   115727208.219 7
  90177103.21245        45.600          30.200
  21145594.094                    21145600.203    21145600.141   111120995.499 8
  86587739.634 7        50.100          47.800
  21632438.055                    21632444.691    21632444.688   113679214.910 7
  88581268.084 7        47.800          44.600
  24382141.680                    24382151.949                   128129013.382 6
  99840867.625 6        37.600          38.100
  22366342.891                    22366349.117    22366348.996   117536138.281 7
  91586458.266 7        45.100          43.700
  20163458.336                    20163467.551                   105959684.085 8
  82566066.684 8        51.500          50.300
 14  1 10  0 18 30.0000000  0  8G04G02G14G12G29G24G31G25
  23674323.898                                    23674330.883   124409388.266 6
  96942424.72043        40.600          20.100
  23150638.539                                    23150641.656   121657376.888 7
  94798022.52045        42.500          30.200
  22033815.719                                    22033821.414   115788424.759 7
  90224804.38144        45.500          29.800
  21158136.336                    21158141.449    21158141.270   111186903.853 8
  86639096.789 7        50.200          47.000
  21616237.594                    21616244.348    21616244.168   113594081.274 8
  88514930.208 7        48.300          45.000
  24403238.180                    24403248.508                   128239879.177 6
  99927256.420 6        37.500          38.700
  22350769.664                    22350775.305    22350775.242   117454297.691 7
  91522686.382 7        45.400          44.700
  20161731.844                    20161740.648                   105950611.144 8
  82558996.858 8        51.500          51.200
 14  1 10  0 19  0.0000000  0  8G04G02G14G12G29G24G31G25
  23682067.016                                    23682075.055   124450084.188 6
  96974135.83543        40.400          18.600
  23142878.719                                    23142883.125   121616602.314 7
  94766250.13944        43.200          29.600
  22045559.695                                    22045564.922   115850137.248 7
  90272892.02245        45.000          30.400
  21170737.195                    21170743.480    21170743.301   111253123.796 8
  86690696.743 7        49.700          47.600
  21600111.992                    21600118.980    21600118.625   113509341.987 8
  88448899.599 7        48.100          44.800
  24424356.680                    24424367.594                   128350856.043 6
 100013731.782 6        37.400          38.700
  22335249.508                    22335254.914    22335254.852   117372739.345 7
  91459134.425 7        45.400          44.200
  20160089.070                    20160097.992                   105941978.501 8
  82552270.129 8        51.000          50.700
 14  1 10  0 19 30.0000000  0  8G04G02G14G12G29G24G31G25
  23689923.867                                    23689931.672   124491370.943 6
  97006307.34343        38.900          18.300
  23135210.039                                    23135213.684   121576303.206 7
  94734848.26044        43.900          29.600
  22057396.781                                    22057402.770   115912344.031 7
  90321364.81344        44.700          29.800
  21183397.820                    21183403.637    21183403.398   111319655.327 8
  86742539.487 7        49.500          47.500
  21584062.180                    21584069.051    21584069.223   113424999.854 7
  88383178.465 7        46.800          44.800
  24445496.555                    24445506.648                   128461943.156 5
 100100293.032 6        35.800          38.700
  22319783.063                    22319788.703    22319788.875   117291465.426 7
  91395804.098 7        44.300          43.700
  20158530.047                    20158538.559                   105933786.773 8
  82545886.961 8        51.500          50.900
 14  1 10  0 20  0.0000000  0  8G04G02G14G12G29G24G31G25
  23697893.359                                    23697900.578   124533247.045 6
  97038938.01943        38.800          19.300
  23127632.125                                    23127636.414   121536481.358 7
  94703818.25644        45.200          29.300
  22069328.008                                    22069333.820   115975042.813 7
  90370220.98545        46.000          30.200
  21196117.844                    21196123.426    21196123.188   111386496.858 8
  86794623.798 7        50.200          47.400
  21568088.688                    21568095.090    21568094.734   113341056.954 8
  88317768.428 7        48.100          45.700
  24466656.391                    24466666.543                   128573138.633 5
 100186938.709 6        35.900          38.400
  22304372.008                    22304377.297    22304377.645   117210478.445 7
  91332697.361 7        45.800          44.400
  20157055.453                    20157064.727                   105926036.108 8
  82539847.487 8        51.600          51.000
 14  1 10  0 20 30.0000000  0  8G04G02G14G12G29G24G31G25
  23705974.313                                    23705981.180   124575709.954 6
  97072026.02543        39.000          19.000
  23120145.625                                    23120149.328   121497136.962 7
  94673160.29645        43.800          30.000
  22081352.055                                    22081358.277   116038230.496 7
  90419458.11644        46.000          29.000
  21208895.250                    21208900.949    21208900.828   111453645.415 8
  86846947.341 7        50.700          47.400
  21552190.961                    21552197.656    21552197.828   113257513.710 8
  88252669.804 7        48.200          45.300
  24487836.234                    24487846.387                   128684439.448 5
 100273666.446 6        35.100          37.900
  22289015.203                    22289021.078    22289020.898   117129778.549 7
  91269814.333 7        45.800          44.200
  20155664.086                    20155672.891                   105918725.064 8
  82534150.571 8        51.900          51.100
 14  1 10  0 21  0.0000000  0  8G04G02G14G12G29G24G31G25
  23714166.219                                    23714173.555   124618759.149 6
  97105570.82943        39.600          19.600
  23112749.500                                    23112753.496   121458272.681 7
  94642876.45644        42.000          29.700
  22093469.133                                    22093474.711   116101905.462 7
  90469074.96244        45.600          28.900
  21221731.133                    21221737.359    21221737.355   111521100.724 8
  86899509.919 7        50.300          47.300
  21536369.805                    21536376.090    21536375.793   113174373.031 8
  88187884.870 7        48.000          45.600
  24509035.406                    24509046.027                   128795845.225 5
 100360476.067 6        35.900          37.300
  22273714.180                    22273719.645    22273719.816   117049369.281 7
  91207157.763 7        45.700          44.000
  20154356.953                    20154365.699                   105911854.679 8
  82528797.025 8        51.100          51.500
 14  1 10  0 21 30.0000000  0  8G04G02G14G12G29G24G31G25
  23722469.109                                    23722476.445   124662391.368 6
  97139569.93543        39.900          19.600
  23105445.445                                    23105449.617   121419888.436 7
  94612966.67844        43.200          29.800
  22105678.445                                    22105684.258   116166063.611 7
  90519068.30644        44.900          28.700
  21234625.641                    21234631.516    21234631.219   111588859.980 8
  86952309.336 7        50.700          47.000
  21520625.641                    21520631.457    21520631.512   113091635.587 8
  88123414.157 7        48.100          45.600
  24530255.648                    24530265.332                   128907352.319 5
 100447364.620 6        35.200          37.200
  22258468.117                    22258473.348    22258473.344   116969251.189 7
  91144728.078 7        45.700          43.900
  20153132.875                    20153142.031                   105905423.258 8
  82523785.527 8        51.500          51.200
 14  1 10  0 22  0.0000000  0  8G04G02G14G12G29G24G31G25
  23730883.117                                    23730890.453   124706606.719 6
  97174023.45443        40.400          20.900
  23098233.063                                    23098237.176   121381987.554 7
  94583433.52445        43.900          30.200
  22117979.047                                    22117985.270   116230704.740 7
  90569438.00044        45.600          29.300
  21247578.180                    21247584.289    21247583.992   111656923.599 8
  87005345.922 7        50.400          47.000
  21504958.461                    21504964.980    21504964.859   113009304.595 7
  88059260.150 7        47.900          45.400
  24551492.578                    24551503.902                   129018961.161 5
 100534332.445 6        35.000          37.000
  22243278.242                    22243283.824    22243283.645   116889427.366 7
  91082527.696 7        44.800          44.300
  20151992.367                    20152002.227                   105899432.315 8
  82519117.257 8        51.600          50.600
 14  1 10  0 22 30.0000000  0  8G04G02G14G12G29G24G31G25
  23739407.922                                    23739414.262   124751403.511 6
  97208930.03043        41.300          20.900
  23091113.172                                    23091116.582   121344570.981 7
  94554277.77945        42.100          31.500
  22130371.609                                    22130376.895   116295826.147 7
  90620181.93644        43.600          29.800
  21260587.008                    21260593.410    21260593.172   111725289.392 8
  87058617.965 7        49.400          47.000
  21489368.695                    21489375.332    21489375.328   112927381.962 7
  87995424.345 7        46.500          45.400
  24572751.555                    24572761.355                   129130669.384 5
 100621377.718 6        35.300          36.700
  22228144.266                    22228150.141    22228149.961   116809899.691 7
  91020558.086 7        44.300          43.900
  20150936.766                    20150945.688                   105893881.644 8
  82514792.053 8        51.500          50.900
 14  1 10  0 23  0.0000000  0  8G04G02G14G12G29G24G31G25
  23748043.102                                    23748049.969   124796781.318 6
  97244289.37943        41.700          19.900
  23084085.664                                    23084089.836   121307642.071 7
  94525502.01345        44.300          30.700
  22142854.398                                    22142860.563   116361427.156 7
  90671299.59444        43.300          28.700
  21273654.438                    21273660.313    21273660.309   111793958.074 8
  87112126.026 7        49.100          47.600
  21473857.953                    21473864.766    21473864.586   112845870.781 8
  87931909.153 7        48.500          45.800
  24594026.227                    24594037.316                   129242476.570 5
 100708500.127 6        34.900          37.300
  22213068.055                    22213073.344    22213073.164   116730671.785 7
  90958822.056 7        46.300          44.100
  20149964.656                    20149973.637                   105888772.515 8
  82510810.913 8        52.100          51.200
 14  1 10  0 23 30.0000000  0  8G04G02G14G12G29G24G31G25
  23756787.852                                    23756794.016   124842735.603 6
  97280097.90143        41.200          20.100
  23077150.945                                    23077154.590   121271199.250 7
  94497105.01545        44.200          30.800
  22155427.938                                    22155433.750   116427502.260 7
  90722786.67444        42.500          28.900
  21286778.406                    21286784.281    21286784.102   111862924.793 8
  87165866.324 7        49.000          47.200
  21458424.008                    21458431.230    21458431.168   112764770.151 8
  87868713.870 7        48.000          46.000
  24615321.391                    24615331.953                   129354378.578 5
 100795696.405 6        34.900          36.900
  22198048.984                    22198054.332    22198054.035   116651742.514 7
  90897318.740 7        46.600          44.100
  20149075.148                    20149084.656                   105884101.855 8
  82507171.434 8        51.900          51.400
 14  1 10  0 24  0.0000000  0  8G04G02G14G12G29G24G31G25
  23765641.641                                    23765648.801   124889266.685 6
  97316355.89243        40.600          19.600
  23070309.352                                    23070312.820   121235245.766 7
  94469089.33245        43.400          30.700
  22168092.102                                    22168097.855   116494050.764 7
  90774642.64144        45.700          28.300
  21299959.055                    21299965.457    21299965.277   111932189.811 8
  87219839.064 7        49.800          47.000
  21443070.820                    21443077.633    21443077.277   112684083.587 8
  87805841.235 7        48.400          45.400
  24636633.844                    24636643.879                   129466374.940 5
 100882966.197 6        35.100          36.300
  22183086.000                    22183091.758    22183091.461   116573115.639 7
  90836051.052 7        45.400          43.900
  20148270.523                    20148279.680                   105879871.174 8
  82503874.793 8        51.400          51.000
 14  1 10  0 24 30.0000000  0  8G04G02G14G12G29G24G31G25
  23774606.391                                    23774613.141   124936372.036 6
  97353061.35943        40.800          19.900
  23063560.344                                    23063563.930   121199782.295 7
  94441455.46645        43.900          30.800
  22180845.367                                    22180851.590   116561070.061 7
  90826865.45044        45.100          28.600
  21313196.555                    21313202.313    21313202.191   112001751.521 8
  87274042.992 7        49.800          47.400
  21427795.555                    21427802.074    21427802.188   112603812.367 8
  87743292.256 7        48.500          45.700
  24657963.680                    24657973.891                   129578463.761 5
 100970308.012 6        35.400          36.300
  22168182.063                    22168187.410    22168187.348   116494792.808 7
  90775020.274 7        46.300          43.800
  20147549.117                    20147557.922                   105876080.019 8
  82500920.640 8        51.900          51.500
 14  1 10  0 25  0.0000000  0  8G04G02G14G12G29G24G31G25
  23783679.125                                    23783685.465   124984051.944 6
  97390214.54143        40.400          18.600
  23056906.039                                    23056909.977   121164812.293 7
  94414206.12045        43.900          30.200
  22193688.023                                    22193693.660   116628559.449 7
  90879454.57744        44.200          28.300
  21326490.078                    21326495.895    21326495.773   112071610.221 8
  87328478.335 7        49.500          47.500
  21412600.188                    21412606.707    21412606.820   112523960.160 7
  87681069.768 7        47.500          46.000
  24679312.164                    24679321.906                   129690644.965 5
 101057721.808 6        35.400          36.100
  22153335.953                    22153341.887    22153341.766   116416777.544 7
  90714229.164 7        45.200          44.200
  20146911.766                    20146920.453                   105872729.912 8
  82498310.164 8        51.900          51.100
 14  1 10  0 25 30.0000000  0  8G04G02G14G12G29G24G31G25
  23792861.297                                    23792867.930   125032303.938 6
  97427813.49243        40.200          19.000
  23050345.008                                    23050349.063   121130336.166 7
  94387341.62444        44.200          29.700
  22206620.219                                    22206625.621   116696515.809 6
  90932407.56544        41.600          28.900
  21339840.313                    21339845.953    21339845.773   112141763.679 8
  87383143.361 7        48.700          47.000
  21397485.250                    21397491.887    21397491.707   112444528.026 8
  87619174.608 7        48.300          45.900
  24700675.391                    24700686.422                   129802915.798 5
 101145205.462 6        35.400          36.400
  22138549.094                    22138554.441    22138554.438   116339070.930 7
  90653678.557 7        46.600          44.000
  20146357.773                    20146366.402                   105869819.831 8
  82496042.565 8        51.600          51.200
 14  1 10  0 26  0.0000000  0  8G04G02G14G12G29G24G31G25
  23802151.313                                    23802158.297   125081124.250 6
  97465855.27542        39.400          17.800
  23043878.695                                    23043882.574   121096353.688 7
  94360861.77244        44.800          29.600
  22219639.625                                    22219645.320   116764934.617 7
  90985720.92144        44.600          28.600
  21353244.914                    21353250.672    21353250.258   112212208.344 8
  87438035.297 7        49.700          47.100
  21382449.055                    21382456.160    21382455.980   112365515.986 8
  87557606.801 7        48.300          45.400
  24722056.422                    24722066.867                   129915272.996 5
 101232756.421 6        34.800          36.000
  22123820.227                    22123826.277    22123826.273   116261673.138 7
  90593368.589 7        47.200          43.700
  20145887.375                    20145896.297                   105867347.880 8
  82494116.369 8        51.300          51.300
 14  1 10  0 26 30.0000000  0  8G04G02G14G12G29G24G31G25
