     2.11           OBSERVATION DATA    G (GPS)             RINEX VERSION / TYPE
teqc  2013Mar15                         20140106 12:52:54UTCPGM / RUN BY / DATE
Linux 2.4.20-8|Pentium IV|gcc -static|Linux|486/DX+         COMMENT
   0.033      (antenna height)                              COMMENT
 +55.21279000 (latitude)                                    COMMENT
  -1.68549700 (longitude)                                   COMMENT
0144.425      (elevation)                                   COMMENT
BIT 2 OF LLI FLAGS DATA COLLECTED UNDER A/S CONDITION       COMMENT
MORP (COGO code)                                            COMMENT
MORP                                                        MARKER NAME
13299S001                                                   MARKER NUMBER
Matt King           NCL                                     OBSERVER / AGENCY
4843K3347           TRIMBLE NETR8       4.19                REC # / TYPE / VERS
221                 AOAD/M_T        NONE                    ANT # / TYPE
  3645667.8584  -107277.2886  5215053.4919                  APPROX POSITION XYZ
        0.0330        0.0000        0.0000                  ANTENNA: DELTA H/E/N
     1     1                                                WAVELENGTH FACT L1/2
     8    C1    P1    C2    P2    L1    L2    S1    S2      # / TYPES OF OBSERV
    30.0000                                                 INTERVAL
    16                                                      LEAP SECONDS
Forced Modulo Decimation to 30 seconds                      COMMENT
 SNR is mapped to RINEX snr flag value [0-9]                COMMENT
  L1 & L2: min(max(int(snr_dBHz/6), 0), 9)                  COMMENT
  2014     1     1     0     0    0.0000000     GPS         TIME OF FIRST OBS
                                                            END OF HEADER
 14  1  1  0  0  0.0000000  0  9G04G02G14G32G25G29G24G12G31
  23543820.984                                    23543827.734   123723536.802 6
  96408038.70743        40.100          19.900
  24464738.922                                    24464743.094   128562865.285 7
 100179042.02143        42.400          23.200
  21392261.992                                    21392268.156   112417012.990 7
  87597757.09645        47.500          34.500
  24837749.945                                                   130523246.538 5
                        35.300
  20853735.070                    20853744.168                   109587071.676 8
  85392625.485 8        50.300          48.500
  23734183.133                    23734189.945    23734190.234   124723785.121 7
  97187535.507 6        42.000          39.000
  22254020.125                    22254029.691                   116945827.612 7
  91126564.310 7        44.900          46.600
  20191374.289                    20191379.578    20191379.516   106106495.015 8
  82680353.957 8        52.600          51.500
  24285333.656                    24285339.707                   127620299.137 6
  99444401.939 5        36.600          33.600
 14  1  1  0  0 30.0000000  0  9G04G02G14G32G25G29G24G12G31
  23538557.352                                    23538565.215   123695880.663 6
  96386488.45443        39.900          21.100
  24449560.078                                    24449564.250   128483103.116 7
 100116889.71143        42.600          21.800
  21391803.555                                    21391809.074   112414603.251 7
  87595879.36945        47.300          34.600
  24838575.094                                                   130527582.38515
                        34.000
  20843125.750                    20843134.730                   109531318.805 8
  85349181.695 8        50.000          48.400
  23712402.297                    23712408.465    23712408.578   124609323.625 6
  97098344.760 6        41.500          39.500
  22270923.500                    22270933.008                   117034655.598 7
  91195780.896 7        44.900          46.900
  20195930.805                    20195936.680    20195936.383   106130440.350 8
  82699012.662 8        53.200          51.200
  24266090.227                    24266095.984                   127519172.953 5
  99365602.319 5        35.700          33.400
 14  1  1  0  1  0.0000000  0  9G04G02G14G32G25G29G24G12G31
  23533408.039                                    23533415.375   123668816.191 6
  96365399.26543        40.100          21.100
  24434424.578                                    24434428.633   128403565.084 7
 100054912.06343        42.500          21.700
  21391460.602                                    21391466.766   112412802.909 7
  87594476.48845        47.700          33.700
  24839505.211                                                   130532466.334 5
                        34.700
  20832592.273                    20832601.020                   109475963.498 8
  85306047.687 8        49.800          49.000
  23690648.039                    23690654.500    23690654.438   124495005.968 7
  97009266.079 6        42.100          39.600
  22287880.672                    22287890.531                   117123766.877 7
  91265218.228 7        44.900          46.400
  20200573.633                    20200578.863    20200578.918   106154837.275 8
  82718023.252 8        52.900          51.400
  24246863.375                    24246869.133                   127418134.340 6
  99286870.923 5        36.500          33.200
 14  1  1  0  1 30.0000000  0  9G04G02G14G32G25G29G24G12G31
  23528370.102                                    23528377.613   123642342.304 6
  96344770.29243        39.900          21.100
  24419331.422                                    24419336.121   128324251.475 7
  99993109.31743        42.600          22.900
  21391233.938                                    21391239.984   112411609.644 8
  87593546.66945        48.300          34.500
  24840539.164                                                   130537897.144 5
                        34.700
  20822133.469                    20822142.566                   109421004.172 8
  85263222.246 8        50.400          49.100
  23668920.727                    23668928.184    23668928.414   124380832.201 6
  96920299.517 6        41.600          39.300
  22304891.281                    22304901.199                   117213157.683 7
  91334873.366 7        45.100          46.400
  20205301.531                    20205306.645    20205306.699   106179682.585 8
  82737383.238 8        52.800          51.400
  24227652.203                    24227658.137    24227658.543   127317182.526 6
  99208207.174 5        37.100          33.800
 14  1  1  0  2  0.0000000  0  9G04G02G14G32G25G29G24G12G31
  23523444.758                                    23523452.445   123616461.336 6
  96324603.32543        40.500          20.400
  24404282.008                                    24404286.883   128245166.099 7
  99931484.38343        42.600          22.200
  21391122.586                                    21391128.281   112411024.879 8
  87593090.99745        48.100          34.200
  24841675.469                                                   130543874.764 5
                        33.500
  20811750.969                    20811760.184                   109366442.519 8
  85220706.681 8        50.500          49.500
  23647222.773                    23647229.645    23647229.348   124266805.581 7
  96831447.625 6        42.600          39.000
  22321954.844                    22321964.645                   117302827.507 7
  91404745.926 7        45.400          45.600
  20210114.445                    20210120.379    20210120.316   106204975.761 8
  82757092.205 8        53.100          51.300
  24208459.102                    24208464.566    24208465.207   127216320.072 6
  99129613.057 5        37.200          33.700
 14  1  1  0  2 30.0000000  0  9G04G02G14G32G25G29G24G12G31
  23518633.516                                    23518640.207   123591176.310 6
  96304900.71643        39.800          20.400
  24389277.055                                    24389281.109   128166313.439 7
  99870040.78343        42.600          23.000
  21391127.203                                    21391133.250   112411050.079 8
  87593110.63345        48.300          34.100
  24842917.586                                                   130550400.387 5
                        33.500
  20801444.031                    20801452.836                   109312280.918 8
  85178502.849 8        50.900          49.400
  23625552.750                    23625559.621    23625559.617   124152930.515 7
  96742713.806 6        42.500          39.300
  22339071.727                    22339081.410                   117392776.663 7
  91474836.151 7        45.500          46.300
  20215013.273                    20215018.563    20215018.266   106230717.902 8
  82777151.016 8        52.700          51.300
  24189282.781                    24189289.184    24189289.824   127115550.031 6
  99051090.962 5        37.700          33.700
 14  1  1  0  3  0.0000000  0  9G04G02G14G32G25G29G24G12G31
  23513934.703                                    23513941.980   123566484.918 6
  96285660.67443        39.700          19.300
  24374315.766                                    24374320.113   128087692.092 7
  99808777.42943        42.700          22.500
  21391247.953                                    21391253.590   112411682.079 8
  87593603.09945        48.400          34.000
  24844262.016                                                   130557470.025 5
                        31.800
  20791213.164                    20791222.438                   109258516.532 8
  85136608.530 8        50.400          50.000
  23603911.430                    23603918.828    23603918.648   124039205.700 7
  96654097.084 6        42.600          39.900
  22356241.484                    22356250.172                   117482999.942 7
  91545139.969 7        44.900          46.100
  20219995.953                    20220001.887    20220001.590   106256903.794 8
  82797555.608 8        52.100          51.100
  24170124.836                    24170130.652    24170131.000   127014870.438 6
  98972639.345 5        38.200          34.500
 14  1  1  0  3 30.0000000  0  9G04G02G14G32G25G29G24G12G31
  23509349.766                                    23509357.512   123542392.216 6
  96266887.14043        39.800          20.100
  24359400.313                                    24359404.309   128009308.607 7
  99747699.43343        43.300          22.300
  21391483.914                                    21391489.902   112412924.459 8
  87594571.17245        48.200          34.100
  24845712.328                                                   130565086.848 5
                        31.900
  20781058.289                    20781067.504                   109205153.889 8
  85095027.255 8        50.400          49.700
  23582299.789                    23582307.715    23582307.359   123925637.352 7
  96565602.271 6        42.400          40.100
  22373462.148                    22373471.949                   117573499.737 7
  91615659.261 7        44.900          46.000
  20225064.117                    20225069.406    20225069.109   106283536.118 8
  82818308.069 8        52.800          50.900
  24150984.438                    24150989.434    24150989.898   126914286.418 6
  98894262.200 5        38.800          33.800
 14  1  1  0  4  0.0000000  0  9G04G02G14G32G25G29G24G12G31
  23504878.375                                    23504886.707   123518898.503 6
  96248580.36243        40.500          19.300
  24344529.984                                    24344534.508   127931164.704 7
  99686808.10644        43.200          24.800
  21391836.578                                    21391842.391   112414776.624 8
  87596014.41645        48.800          35.200
  24847265.047                                                   130573249.100 4
                        29.600
  20770980.031                    20770989.363                   109152192.563 8
  85053758.705 8        50.600          49.900
  23560719.586                    23560726.105    23560725.984   123812226.809 7
  96477230.437 6        42.500          40.000
  22390736.164                    22390745.730                   117664274.009 7
  91686392.430 7        43.600          46.000
  20230216.680                    20230222.086    20230221.848   106310612.640 8
  82839406.660 8        52.400          51.200
  24131861.867                    24131867.508    24131867.914   126813798.631 6
  98815960.042 5        38.600          34.600
 14  1  1  0  4 30.0000000  0  9G04G02G14G32G25G29G24G12G31
  23500521.781                                    23500529.762   123496004.138 6
  96230740.60443        40.300          19.600
  24329705.805                                    24329709.918   127853261.731 7
  99626104.53743        42.900          23.900
  21392305.016                                    21392310.359   112417237.404 7
  87597931.90545        47.800          34.400
  24848921.789                                                   130581955.273 5
                        30.300
  20760978.727                    20760987.004                   109099632.296 8
  85012802.657 8        51.600          50.000
  23539167.234                    23539174.926    23539175.098   123698975.454 6
  96388982.645 6        41.000          40.000
  22408061.375                    22408071.410                   117755320.038 7
  91757337.364 7        44.100          46.000
  20235453.078                    20235459.070    20235458.773   106338131.968 8
  82860850.291 8        52.000          51.400
  24112758.469                    24112763.758    24112764.105   126713407.409 6
  98737733.127 5        39.000          35.500
 14  1  1  0  5  0.0000000  0  9G04G02G14G32G25G29G24G12G31
  23496279.883                                    23496287.980   123473710.839 6
  96213369.22943        40.500          19.900
  24314927.063                                    24314931.996   127775603.319 7
  99565591.52543        43.100          23.600
  21392889.063                                    21392894.875   112420307.667 8
  87600324.30945        48.600          34.400
  24850681.242                                                   130591205.655 4
                        29.400
  20751053.375                    20751062.473                   109047474.521 8
  84972160.250 8        50.700          49.100
  23517648.141                    23517655.188    23517655.125   123585886.485 7
  96300861.393 6        42.000          39.600
  22425438.508                    22425448.484                   117846637.171 7
  91828493.543 7        43.000          46.200
  20240774.000                    20240779.875    20240779.930   106366093.320 8
  82882638.355 8        52.300          51.100
  24093673.477                    24093679.352    24093679.230   126613114.898 6
  98659583.119 5        39.200          35.200
 14  1  1  0  5 30.0000000  0  9G04G02G14G32G25G29G24G12G31
  23492151.742                                    23492159.898   123452019.676 6
  96196467.00943        40.200          19.900
  24300196.203                                    24300200.492   127698191.716 7
  99505270.83743        42.800          22.900
  21393589.391                                    21393595.027   112423987.339 8
  87603191.58145        48.100          33.900
  24852545.734                                                   130600999.283 5
                        30.700
  20741204.508                    20741213.547                   108995719.832 8
  84931831.927 8        50.800          49.600
  23496158.594                    23496166.461    23496166.281   123472962.408 6
  96212868.623 6        41.100          39.800
  22442867.422                    22442876.461                   117938223.377 7
  91899859.396 7        42.700          46.000
  20246178.688                    20246184.270    20246184.090   106394495.107 8
  82904769.620 8        52.200          51.300
  24074607.328                    24074613.027    24074613.258   126512922.618 6
  98581511.226 5        39.400          35.100
 14  1  1  0  6  0.0000000  0  9G04G02G14G32G25G29G24G12G31
  23488140.039                                    23488146.672   123430932.091 6
  96180035.13143        39.600          19.900
  24285513.078                                    24285517.602   127621029.910 6
  99445144.79543        41.800          22.500
  21394405.477                                    21394411.113   112428276.417 7
  87606533.71345        47.800          34.700
  24854512.836                                                   130611335.512 4
                        29.400
  20731432.852                    20731442.008                   108944368.918 8
  84891818.241 8        49.800          49.000
  23474701.969                    23474709.191    23474709.129   123360205.736 6
  96125006.282 6        40.400          40.300
  22460346.758                    22460356.266                   118030077.457 7
  91971433.980 7        43.300          45.700
  20251667.078                    20251672.953    20251672.832   106423336.237 8
  82927243.230 8        52.100          51.500
  24055561.180                    24055565.707    24055565.938   126412832.048 6
  98503518.592 5        39.900          35.100
 14  1  1  0  6 30.0000000  0  9G04G02G14G32G25G29G24G12G31
  23484241.891                                    23484248.289   123410448.514 6
  96164073.92443        39.500          19.000
  24270877.750                                    24270882.039   127544119.787 7
  99385214.85243        42.000          23.000
  21395337.313                                    21395343.125   112433174.420 7
  87610350.33245        47.900          34.100
  24856583.805                                                   130622213.294 5
                        30.800
  20721738.250                    20721746.762                   108893421.933 8
  84852119.302 8        50.200          49.300
  23453277.547                    23453284.184    23453284.473   123247618.132 6
  96037275.702 6        40.800          40.100
  22477876.578                    22477885.676                   118122197.510 7
  92043215.812 7        42.300          45.200
  20257238.492                    20257244.543    20257244.422   106452615.084 8
  82950057.916 8        52.400          50.700
  24036534.203                    24036538.906    24036538.727   126312844.419 6
  98425606.163 5        39.500          35.200
 14  1  1  0  7  0.0000000  0  9G04G02G14G32G25G29G24G12G31
  23480459.742                                    23480466.023   123390571.078 6
  96148585.04043        39.900          19.000
  24256291.719                                    24256294.484   127467465.058 7
  99325483.92843        42.100          23.400
  21396385.680                                    21396391.082   112438682.128 7
  87614642.05745        47.800          34.500
  24858755.398                                                   130633632.850 5
                        30.800
  20712120.539                    20712129.344                   108842880.550 8
  84812736.412 8        50.400          49.300
  23431885.617                    23431892.840    23431892.660   123135203.129 6
  95949679.606 6        41.000          39.900
  22495456.688                    22495465.844                   118214583.014 7
  92115204.497 7        43.400          45.600
  20262893.953                    20262899.477    20262899.297   106482332.068 8
  82973214.005 8        52.400          50.900
  24017527.438                    24017532.434    24017532.430   126212962.073 6
  98347775.770 5        39.600          35.000
 14  1  1  0  7 30.0000000  0  9G04G02G14G32G25G29G24G12G31
  23476792.805                                    23476799.438   123371301.182 6
  96133569.56043        40.600          21.100
  24241752.391                                    24241756.973   127391068.284 7
  99265953.99843        42.000          23.500
  21397549.563                                    21397555.551   112444799.814 7
  87619409.08145        47.400          34.100
  24861031.609                                                   130645593.788 5
                        30.700
  20702580.008                    20702588.871                   108792745.673 8
  84773670.269 8        50.300          50.000
  23410527.313                    23410534.359    23410534.473   123022963.188 6
  95862219.931 6        40.700          40.200
  22513087.055                    22513096.738                   118307233.163 7
  92187399.387 7        43.600          45.000
  20268631.852                    20268636.906    20268637.020   106512485.882 8
  82996710.489 8        52.900          50.300
  23998540.602                    23998545.773    23998546.121   126113186.842 6
  98270028.862 6        39.800          36.500
 14  1  1  0  8  0.0000000  0  9G04G02G14G32G25G29G24G12G31
  23473241.102                                    23473248.496   123352640.294 6
  96119028.58843        40.400          20.400
  24227264.133                                    24227268.773   127314932.969 7
  99206627.81243        42.500          22.900
  21398829.797                                    21398835.727   112451527.855 7
  87624651.70145        47.200          34.300
  24863411.625                                                   130658095.687 5
                        31.000
  20693117.133                    20693126.523                   108743018.413 8
  84734921.763 8        50.500          49.600
  23389202.766                    23389209.695    23389209.457   122910901.371 6
  95774899.047 6        41.100          40.500
  22530768.070                    22530777.754                   118400146.381 7
  92259799.281 7        42.600          45.100
  20274452.703                    20274458.051    20274457.871   106543075.259 8
  83020546.365 8        52.400          50.900
  23979574.719                    23979579.715    23979579.770   126013520.603 6
  98192366.870 6        39.800          36.400
 14  1  1  0  8 30.0000000  0  9G04G02G14G32G25G29G24G12G31
  23469806.438                                    23469812.953   123334587.715 6
  96104961.67643        40.900          21.100
  24212825.914                                    24212830.965   127239059.434 7
  99147505.62643        42.200          22.800
  21400226.320                                    21400232.016   112458864.288 7
  87630368.39545        47.800          33.900
  24865892.883                                                   130671136.142 5
                        33.200
  20683731.992                    20683740.680                   108693697.583 8
  84696489.951 8        49.800          49.800
  23367911.922                    23367918.676    23367918.789   122799018.348 6
  95687717.483 6        41.400          40.200
  22548498.773                    22548508.223                   118493319.573 7
  92332401.741 7        43.500          44.500
  20280356.172                    20280361.813    20280361.633   106574097.538 8
  83044719.572 8        53.000          51.200
  23960629.414                    23960635.523    23960634.934   125913963.363 6
  98114789.809 6        40.500          36.700
 14  1  1  0  9  0.0000000  0  9G04G02G14G32G25G29G24G12G31
  23466487.195                                    23466493.828   123317145.172 6
  96091370.09743        40.800          21.300
  24198438.602                                    24198443.477   127163451.421 6
  99088590.34143        40.800          22.600
  21401738.617                                    21401743.844   112466809.776 7
  87636559.67545        46.900          34.400
  24868475.992                                                   130684715.062 5
                        32.600
  20674423.984                    20674432.965                   108644784.711 8
  84658376.027 8        49.800          49.500
  23346655.406                    23346662.629    23346662.801   122687317.488 6
  95600677.868 6        41.300          39.600
  22566278.078                    22566287.527                   118586752.112 7
  92405206.293 7        42.700          45.000
  20286341.820                    20286347.344    20286347.281   106605553.068 8
  83069230.365 8        52.600          50.700
  23941705.234                    23941710.934    23941710.695   125814517.458 6
  98037299.507 6        40.700          36.300
 14  1  1  0  9 30.0000000  0  9G04G02G14G32G25G29G24G12G31
  23463284.250                                    23463291.234   123300313.761 6
  96078254.70943        40.000          22.300
  24184101.328                                    24184105.734   127088111.668 6
  99029884.06643        41.100          22.500
  21403365.891                                    21403371.176   112475364.471 7
  87643225.66845        47.800          34.000
  24871161.469                                                   130698831.934 5
                        30.700
  20665194.227                    20665202.973                   108596280.707 8
  84620580.703 8        49.800          49.600
  23325435.359                    23325442.055    23325442.051   122575801.153 6
  95513782.048 6        41.800          39.900
  22584106.344                    22584116.203                   118680442.666 7
  92478211.887 7        43.200          44.600
  20292409.695                    20292414.984    20292415.039   106637440.412 8
  83094077.648 8        52.600          50.400
  23922802.781                    23922808.246    23922808.477   125715184.304 6
  97959897.065 6        40.200          37.000
 14  1  1  0 10  0.0000000  0  9G04G02G14G32G25G29G24G12G31
  23460198.422                                    23460204.762   123284094.252 6
  96065616.14643        39.900          21.300
  24169816.313                                    24169821.246   127013042.100 6
  98971388.34744        40.900          24.400
  21405109.883                                    21405115.285   112484527.793 7
  87650365.91345        47.200          34.800
  24873951.430                                                   130713485.406 5
                        33.100
  20656042.063                    20656050.691                   108548185.603 8
  84583104.004 8        50.200          49.100
  23304249.398                    23304256.973    23304256.441   122464471.550 6
  95427031.726 6        40.500          40.900
  22601984.336                    22601993.668                   118774389.275 7
  92551417.012 7        43.000          44.900
  20298559.922                    20298564.859    20298564.738   106669757.556 8
  83119259.834 8        52.600          50.900
  23903922.813                    23903928.395    23903927.980   125615965.436 6
  97882583.674 6        40.800          37.800
 14  1  1  0 10 30.0000000  0  9G04G02G14G32G25G29G24G12G31
  23457228.344                                    23457235.152   123268488.365 6
  96053455.73043        39.800          21.700
  24155583.813                                    24155587.750   126938246.346 6
  98913105.96144        40.800          24.500
  21406969.445                                    21406975.199   112494299.960 7
  87657980.57845        47.000          34.000
  24876841.094                                                   130728675.461 5
                        33.000
  20646967.281                    20646976.730                   108500500.944 8
  84545947.134 8        49.400          49.300
  23283100.648                    23283107.227    23283107.457   122353331.866 6
  95340429.408 6        41.500          40.500
  22619910.453                    22619919.785                   118868591.596 7
  92624821.392 7        43.800          44.700
  20304790.859                    20304797.027    20304796.848   106702504.395 8
  83144776.846 8        52.300          50.400
  23885063.586                    23885069.871    23885069.516   125516863.393 6
  97805361.304 6        40.800          38.100
 14  1  1  0 11  0.0000000  0  9G04G02G14G32G25G29G24G12G31
  23454375.281                                    23454382.617   123253496.958 6
  96041774.13543        40.200          21.500
  24141402.383                                    24141407.316   126863726.723 7
  98855038.74444        42.000          24.600
  21408944.844                                    21408950.715   112504680.745 7
  87666069.49645        47.300          34.300
  24879835.000                                                   130744401.163 5
                        33.300
  20637971.906                    20637980.711                   108453227.120 8
  84509110.395 8        50.200          49.200
  23261987.414                    23261994.578    23261994.574   122242384.223 6
  95253976.731 6        41.900          40.500
  22637885.703                    22637894.332                   118963047.796 7
  92698423.602 7        43.600          44.500
  20311104.172                    20311110.047    20311109.809   106735679.710 8
  83170627.741 8        52.100          50.600
  23866227.039                    23866232.504    23866232.617   125417879.103 6
  97728230.697 6        40.700          37.700
 14  1  1  0 11 30.0000000  0  9G04G02G14G32G25G29G24G12G31
  23451639.516                                    23451646.441   123239122.131 6
  96030572.98443        39.000          21.100
  24127275.641                                    24127279.402   126789487.238 7
  98797189.83743        42.000          22.600
  21411036.313                                    21411041.891   112515671.357 7
  87674633.60445        47.600          34.500
  24882929.078                                                   130760662.942 5
                        34.500
  20629054.422                    20629063.402                   108406366.198 8
  84472595.395 8        49.900          49.000
  23240911.859                    23240918.789    23240918.609   122131632.632 6
  95167676.813 6        41.400          39.900
  22655908.031                    22655917.246                   119057757.609 7
  92772223.422 7        43.800          44.100
  20317498.617                    20317504.844    20317504.488   106769283.688 8
  83196812.655 8        52.300          49.900
  23847415.070                    23847419.773    23847420.121   125319015.866 6
  97651194.419 6        41.100          37.700
 14  1  1  0 12  0.0000000  0  9G04G02G14G32G25G29G24G12G31
  23449021.117                                    23449028.570   123225362.777 6
  96019851.43043        39.400          20.600
  24113201.086                                    24113205.023   126715528.450 6
  98739559.61943        41.400          22.900
  21413243.789                                    21413248.664   112527269.500 7
  87683671.11245        47.100          35.100
  24886125.125                                                   130777457.984 5
                        34.900
  20620215.469                    20620224.566                   108359916.741 8
  84436401.014 8        49.500          49.100
  23219874.109                    23219881.801    23219881.680   122021077.459 6
  95081529.940 6        41.600          40.500
  22673977.961                    22673987.996                   119152717.820 7
  92846218.364 7        43.300          44.000
  20323974.086                    20323980.488    20323980.367   106803312.898 8
  83223328.917 8        52.300          50.300
  23828624.336                    23828630.211    23828630.207   125220273.304 6
  97574252.178 6        41.300          38.300
 14  1  1  0 12 30.0000000  0  9G04G02G14G32G25G29G24G12G31
  23446520.578                                    23446527.738   123212219.900 6
  96009610.23543        41.100          20.600
  24099180.203                                    24099185.430   126641853.153 6
  98682150.31943        40.200          22.000
  21415566.172                                    21415572.043   112539475.144 7
  87693181.99845        47.800          34.000
  24889421.797                                                   130794785.560 5
                        35.800
  20611454.789                    20611464.063                   108313879.622 8
  84400527.936 8        50.700          49.100
  23198874.320                    23198881.191    23198881.188   121910721.470 6
  94995538.296 6        41.400          39.600
  22692095.523                    22692105.031                   119247926.546 7
  92920406.963 7        43.700          44.300
  20330530.719                    20330536.535    20330536.297   106837766.156 8
  83250175.600 8        52.200          49.800
  23809857.250                    23809862.715    23809863.004   125121653.166 6
  97497405.320 6        41.600          38.000
 14  1  1  0 13  0.0000000  0  9G04G02G14G32G25G29G24G12G31
  23444136.234                                    23444143.277   123199693.695 6
  95999849.55843        39.400          21.100
  24085215.992                                    24085219.988   126568463.353 6
  98624963.50344        40.200          24.100
  21418003.875                                    21418009.805   112552287.353 7
  87703165.52545        47.000          34.300
  24892820.945                                                   130812644.124 5
                        35.300
  20602772.492                    20602781.707                   108268254.819 8
  84364976.135 8        49.600          49.400
  23177912.000                    23177919.809    23177919.980   121800566.305 7
  94909703.124 6        42.300          40.300
  22710259.938                    22710269.914                   119343382.365 7
  92994788.088 7        43.300          43.600
  20337166.586                    20337172.227    20337172.105   106872641.728 8
  83277351.373 8        52.100          50.400
  23791113.648                    23791119.992    23791119.754   125023156.442 6
  97420654.630 6        41.300          38.500
 14  1  1  0 13 30.0000000  0  9G04G02G14G32G25G29G24G12G31
  23441870.211                                    23441878.191   123187786.102 6
  95990570.91743        40.500          21.100
  24071304.258                                    24071309.191   126495362.445 6
  98568001.80343        39.500          22.800
  21420557.211                                    21420563.141   112565706.687 8
  87713622.14245        48.200          33.700
  24896321.008                                                   130831033.573 6
                        36.000
  20594169.102                    20594178.199                   108223043.865 8
  84329746.827 8        50.300          50.200
  23156990.234                    23156996.344    23156997.102   121690615.410 7
  94824027.121 6        42.900          40.200
  22728472.109                    22728481.500                   119439084.266 7
  93069360.977 7        43.700          44.100
  20343884.078                    20343889.426    20343889.246   106907939.828 8
  83304856.383 8        52.100          51.000
  23772394.375                    23772401.129    23772400.715   124924785.833 6
  97344002.212 6        41.600          38.600
 14  1  1  0 14  0.0000000  0  9G04G02G14G32G25G29G24G12G31
  23439722.648                                    23439729.574   123176498.494 6
  95981775.39243        40.200          20.600
  24057449.906                                    24057454.547   126422554.000 6
  98511267.98943        39.400          23.400
  21423226.914                                    21423232.668   112579733.227 7
  87724551.89745        47.200          33.900
  24899921.344                                                   130849953.656 5
                        35.900
  20585644.820                    20585653.684                   108178248.048 8
  84294840.997 8        49.800          49.500
  23136106.250                    23136113.121    23136112.824   121580871.921 7
  94738512.734 6        42.700          40.500
  22746730.391                    22746739.781                   119535031.297 7
  93144124.861 7        43.100          44.400
  20350681.172                    20350686.754    20350686.516   106943659.881 8
  83332690.197 8        52.500          50.400
  23753699.891                    23753706.234    23753706.348   124826543.531 6
  97267449.767 6        40.800          38.800
 14  1  1  0 14 30.0000000  0  9G04G02G14G32G25G29G24G12G31
  23437692.813                                    23437699.445   123165831.771 6
  95973463.66143        40.500          20.100
  24043650.352                                    24043655.871   126350040.592 6
  98454764.08243        40.600          22.500
  21426011.516                                    21426017.445   112594367.045 7
  87735954.85945        47.600          34.200
  24903622.117                                                   130869403.873 5
                        35.400
  20577199.594                    20577208.867                   108133868.264 8
  84260259.349 8        50.700          49.400
  23115262.688                    23115269.734    23115269.965   121471338.737 7
  94653162.232 6        43.000          41.300
  22765034.820                    22765044.563                   119631223.037 7
  93219079.437 7        43.300          44.000
  20357558.633                    20357564.098    20357564.035   106979800.745 8
  83360851.911 8        52.300          50.300
  23735029.859                    23735035.266    23735035.789   124728431.501 6
  97190998.845 6        41.600          38.100
 14  1  1  0 15  0.0000000  0  9G04G02G14G32G25G29G24G12G31
  23435781.078                                    23435787.887   123155785.817 6
  95965635.65843        40.100          20.100
  24029908.969                                    24029912.848   126277823.442 6
  98398491.00743        40.400          23.000
  21428911.273                                    21428917.203   112609606.816 7
  87747829.98645        47.900          33.600
  24907423.531                                                   130889381.911 5
                        35.100
  20568833.508                    20568842.547                   108089903.937 8
  84226001.434 8        50.800          49.500
  23094459.672                    23094466.133    23094466.246   121362016.823 7
  94567976.347 6        42.400          41.100
  22783385.219                    22783395.020                   119727656.100 7
  93294222.052 7        43.100          44.500
  20364515.680                    20364521.203    20364521.316   107016359.477 8
  83389339.236 8        52.700          50.800
  23716384.422                    23716390.297    23716390.352   124630450.392 6
  97114649.936 6        41.100          39.200
 14  1  1  0 15 30.0000000  0  9G04G02G14G32G25G29G24G12G31
  23433988.250                                    23433994.121   123146361.804 6
  95958292.26643        40.900          21.100
  24016223.109                                    24016227.281   126205906.147 6
  98342451.59744        40.500          24.200
  21431927.195                                    21431932.598   112625452.353 7
  87760177.15345        47.800          33.700
  24911324.523                                                   130909887.330 5
                        33.700
  20560546.656                    20560555.695                   108046356.393 8
  84192068.295 8        51.000          50.200
  23073697.578                    23073702.809    23073703.156   121252909.744 7
  94482957.869 6        42.200          40.200
  22801781.711                    22801791.805                   119824330.248 7
  93369552.534 7        43.300          44.500
  20371552.680                    20371557.852    20371557.848   107053336.727 8
  83418152.683 8        52.300          50.600
  23697765.078                    23697770.777    23697770.715   124532602.486 7
  97038404.820 6        42.300          39.000
 14  1  1  0 16  0.0000000  0  9G04G02G14G32G25G29G24G12G31
  23432313.469                                    23432319.926   123137559.329 6
  95951433.20143        41.200          21.300
  24002595.305                                    24002599.477   126134290.223 6
  98286647.03443        40.200          22.900
  21435057.438                                    21435063.191   112641902.601 8
  87772995.51545        48.100          33.400
  24915327.969                                                   130930918.148 5
                        34.400
  20552339.055                    20552347.918                   108003225.038 8
  84158459.453 8        50.800          49.700
  23052975.555                    23052982.074    23052982.188   121144018.516 7
  94398107.577 6        42.200          40.200
  22820223.453                    22820233.254                   119921242.604 7
  93445068.627 7        42.700          44.600
  20378667.805                    20378673.621    20378673.441   107090729.413 8
  83447289.837 8        53.000          50.200
  23679169.930                    23679176.098    23679176.035   124434888.163 7
  96962263.797 6        42.100          38.900
 14  1  1  0 16 30.0000000  0  9G04G02G14G32G25G29G24G12G31
  23430757.227                                    23430762.688   123129380.844 6
  95945060.37443        41.100          21.100
  23989025.305                                    23989029.711   126062979.745 6
  98231080.47244        41.300          25.300
  21438302.813                                    21438308.684   112658958.566 8
  87786285.87345        48.200          33.600
  24919429.664                                                   130952475.048 5
                        34.300
  20544211.094                    20544220.133                   107960512.255 8
  84125176.769 8        51.500          49.300
  23032296.266                    23032303.078    23032303.484   121035347.284 6
  94313428.731 6        41.600          40.200
  22838711.078                    22838720.117                   120018393.723 7
  93520770.768 7        42.800          44.600
  20385862.648                    20385868.113    20385867.934   107128538.040 8
  83476751.094 8        52.800          50.300
  23660602.203                    23660607.844    23660607.664   124337311.158 6
  96886229.764 6        41.500          39.400
 14  1  1  0 17  0.0000000  0  9G04G02G14G32G25G29G24G12G31
  23429318.953                                    23429325.703   123121826.593 7
  95939173.93043        42.000          20.600
  23975512.875                                    23975517.867   125991976.765 6
  98175753.52043        41.500          23.000
  21441663.695                                    21441669.859   112676619.395 7
  87800047.55145        47.800          33.300
  24923631.469                                                   130974556.489 5
                        34.300
  20536162.930                    20536171.266                   107918218.089 8
  84092220.279 8        51.600          49.900
  23011658.000                    23011665.867    23011665.688   120926898.070 6
  94228922.869 6        41.600          40.500
  22857243.148                    22857252.480                   120115780.843 7
  93596656.807 7        42.800          44.300
  20393136.063                    20393141.293    20393141.406   107166761.119 8
  83506535.318 8        52.200          50.400
  23642059.984                    23642065.273    23642065.797   124239872.684 7
  96810303.686 6        42.100          39.200
 14  1  1  0 17 30.0000000  0  9G04G02G14G32G25G29G24G12G31
  23427999.953                                    23428007.113   123114895.918 7
  95933773.42343        42.200          20.100
  23962061.227                                    23962065.047   125921282.620 6
  98120667.23144        41.300          24.000
  21445139.453                                    21445145.090   112694883.386 8
  87814279.21945        48.100          33.500
  24927934.109                                                   130997160.157 5
                        35.500
  20528194.063                    20528202.750                   107876341.895 8
  84059589.490 8        51.600          49.700
  22991063.758                    22991071.566    22991071.504   120818672.604 6
  94144591.353 6        41.600          41.100
  22875820.516                    22875829.496                   120213402.042 6
  93672725.251 7        41.700          44.300
  20400488.227                    20400493.984    20400493.746   107205396.313 8
  83536640.660 8        52.400          50.100
  23623544.766                    23623549.938    23623549.992   124142573.203 6
  96734485.927 6        41.700          38.700
 14  1  1  0 18  0.0000000  0  9G04G02G14G32G25G29G24G12G31
  23426800.227                                    23426807.035   123108589.809 7
  95928859.56643        42.300          20.600
  23948667.109                                    23948671.926   125850900.253 6
  98065823.87843        41.600          21.500
  21448728.922                                    21448735.262   112713750.501 7
  87828980.87145        47.500          32.800
  24932333.156                                                   131020285.251 5
                        34.200
  20520304.984                    20520313.730                   107834884.655 8
  84027285.144 8        51.700          49.600
  22970512.391                    22970519.789    22970520.020   120710673.190 7
  94060435.993 6        42.000          41.100
  22894440.813                    22894449.500                   120311255.675 7
  93748974.819 7        42.100          43.900
  20407918.328                    20407923.852    20407923.789   107244442.652 8
  83567066.379 8        52.300          50.100
  23605056.398                    23605061.805    23605061.684   124045414.855 6
  96658778.138 6        41.300          39.000
 14  1  1  0 18 30.0000000  0  9G04G02G14G32G25G29G24G12G31
  23425719.609                                    23425726.066   123102909.813 6
  95924433.60643        41.800          21.500
  23935333.797                                    23935339.141   125780833.232 6
  98011226.24444        41.800          24.300
  21452434.734                                    21452440.723   112733220.654 7
  87844152.40845        47.600          33.900
  24936833.148                                                   131043931.767 5
                        34.300
  20512496.094                    20512505.074                   107793847.928 8
  83995308.473 8        51.500          50.200
  22950004.273                    22950011.496    22950011.844   120602903.445 6
  93976459.600 6        41.500          40.500
  22913105.523                    22913116.027                   120409341.742 6
  93825405.494 7        41.600          44.900
  20415426.922                    20415432.680    20415432.559   107283899.437 8
  83597811.920 8        51.800          50.800
  23586594.742                    23586599.914    23586599.910   123948400.027 6
  96583182.178 6        41.700          39.400
 14  1  1  0 19  0.0000000  0  9G04G02G14G32G25G29G24G12G31
  23424757.828                                    23424764.637   123097856.391 6
  95920495.88543        41.200          21.800
  23922060.945                                    23922065.996   125711084.172 7
  97956876.38443        42.300          23.800
  21456254.383                                    21456260.313   112753293.404 7
  87859793.49845        47.600          33.600
  24941431.430                                                   131068098.278 5
                        33.700
  20504766.977                    20504775.840                   107753232.083 8
  83963659.759 8        51.600          50.200
  22929540.578                    22929547.684    22929547.973   120495365.432 6
  93892663.780 6        41.600          40.700
  22931814.938                    22931824.328                   120507658.336 6
  93902015.800 7        41.700          44.900
  20423012.992                    20423019.043    20423018.863   107323766.069 8
  83628876.827 8        51.900          50.200
  23568161.750                    23568166.746    23568166.449   123851530.699 6
  96507699.583 6        41.000          39.200
 14  1  1  0 19 30.0000000  0  9G04G02G14G32G25G29G24G12G31
  23423914.711                                    23423921.520   123093427.992 6
  95917045.17043        40.800          20.600
  23908848.969                                    23908853.609   125641653.445 6
  97902774.55244        41.400          24.400
  21460188.469                                    21460194.105   112773966.331 7
  87875902.27045        47.200          33.300
  24946129.242                                                   131092781.764 5
                        32.000
  20497117.781                    20497127.113                   107713035.815 8
  83932337.998 8        51.300          49.900
  22909120.813                    22909128.328    22909128.559   120388059.888 6
  93809049.100 6        41.100          41.100
  22950567.430                    22950576.938                   120606202.209 6
  93978803.217 7        41.700          44.300
  20430677.125                    20430682.707    20430682.469   107364038.928 8
  83660258.271 8        52.100          49.800
  23549755.234                    23549760.289    23549760.227   123754806.479 6
  96432330.063 6        40.800          38.600
 14  1  1  0 20  0.0000000  0  9G04G02G14G32G25G29G24G12G31
  23423191.883                                    23423199.160   123089627.811 6
  95914083.98243        40.200          20.900
  23895698.906                                    23895702.551   125572546.274 7
  97848924.84544        42.800          25.300
  21464236.797                                    21464243.020   112795241.588 7
  87892480.38845        47.300          33.100
  24950925.234                                                   131117983.596 5
                        33.000
  20489549.508                    20489558.137                   107673262.309 8
  83901345.664 8        51.400          50.200
  22888745.828                    22888753.695    22888753.633   120280992.221 6
  93725619.771 6        41.700          41.100
  22969362.734                    22969372.652                   120704973.974 6
  94055768.209 7        41.300          44.300
  20438418.227                    20438423.926    20438423.746   107404719.898 8
  83691957.727 8        51.600          50.200
  23531377.078                    23531382.250    23531382.539   123658231.923 6
  96357077.173 6        40.800          39.000
 14  1  1  0 20 30.0000000  0  9G04G02G14G32G25G29G24G12G31
  23422587.773                                    23422594.816   123086453.708 6
  95911610.66643        40.200          20.400
  23882608.852                                    23882613.375   125503762.309 7
  97795326.97744        42.200          24.100
  21468399.008                                    21468405.172   112817115.779 7
  87909525.19745        46.000          33.500
  24955817.328                                                   131143700.190 5
                        30.500
  20482061.109                    20482070.031                   107633909.407 8
  83870681.068 8        50.200          49.900
  22868417.078                    22868425.180    22868424.941   120174161.747 6
  93642375.271 6        41.300          41.000
  22988201.523                    22988210.563                   120803970.358 6
  94132908.231 7        41.100          44.300
  20446236.305                    20446242.238    20446242.410   107445804.491 8
  83723971.695 8        51.700          50.300
  23513028.164                    23513033.746    23513033.391   123561806.046 6
  96281940.138 6        41.400          39.000
 14  1  1  0 21  0.0000000  0  9G04G02G14G32G25G29G24G12G31
  23422102.945                                    23422110.633   123083908.406 6
  95909627.30843        39.600          20.900
  23869582.398                                    23869587.039   125435306.793 7
  97741985.05444        42.500          26.200
  21472676.086                                    21472681.957   112839590.437 7
  87927037.91345        47.000          33.200
  24960810.781                                                   131169932.578 5
                        32.000
  20474652.516                    20474661.613                   107594980.111 8
  83840346.560 8        51.400          50.200
  22848134.164                    22848141.563    22848141.676   120067573.692 7
  93559319.675 6        42.600          40.900
  23007082.852                    23007092.242                   120903191.509 6
  94210223.415 7        41.100          44.200
  20454131.180                    20454136.938    20454136.816   107487294.250 8
  83756301.372 8        51.400          50.400
  23494708.234                    23494713.582    23494713.402   123465532.841 6
  96206922.061 6        41.900          38.900
 14  1  1  0 21 30.0000000  0  9G04G02G14G32G25G29G24G12G31
  23421737.789                                    23421745.184   123081991.069 6
  95908133.26943        39.800          21.300
  23856618.945                                    23856623.117   125367180.721 7
  97688899.84844        42.600          24.600
  21477066.563                                    21477072.551   112862663.656 7
  87945017.03245        46.600          33.500
  24965899.758                                                   131196678.054 5
                        33.200
  20467325.102                    20467334.141                   107556473.549 8
  83810341.459 8        50.300          50.400
  22827898.008                    22827904.293    22827904.465   119961228.745 7
  93476453.517 6        42.500          40.700
  23026005.813                    23026015.086                   121002635.098 6
  94287711.910 7        41.300          44.100
  20462103.367                    20462109.301    20462109.063   107529186.216 8
  83788944.466 8        51.200          50.000
  23476417.430                    23476422.426    23476422.422   123369412.817 6
  96132023.344 6        41.800          39.700
 14  1  1  0 22  0.0000000  0  9G04G02G14G32G25G29G24G12G31
  23421493.617                                    23421500.250   123080702.558 6
  95907129.24443        40.800          20.900
  23843718.320                                    23843722.316   125299386.805 7
  97636073.47044        42.800          26.800
  21481571.102                                    21481576.914   112886335.107 7
  87963462.30645        46.600          33.600
  24971087.414                                                   131223936.052 5
                        33.800
  20460078.031                    20460087.070                   107518390.669 8
  83780666.491 8        50.800          50.500
  22807707.914                    22807714.492    22807714.547   119855130.072 7
  93393779.259 6        42.600          40.500
  23044971.656                    23044981.340                   121102299.650 6
  94365372.571 7        39.900          44.200
  20470151.836                    20470157.594    20470157.414   107571480.212 8
  83821900.823 8        51.400          50.200
  23458155.930                    23458160.340    23458160.688   123273448.458 6
  96057245.927 6        41.300          39.700
 14  1  1  0 22 30.0000000  0  9G04G02G14G32G25G29G24G12G31
  23421367.195                                    23421374.941   123080041.872 6
  95906614.41743        41.300          21.300
  23830881.313                                    23830884.781   125231926.454 7
  97583506.99744        42.400          25.400
  21486188.813                                    21486195.152   112910602.480 7
  87982371.94345        46.600          33.000
  24976370.273                                                   131251703.774 5
                        34.300
  20452911.680                    20452920.895                   107480730.523 8
  83751320.932 8        50.500          49.700
  22787565.406                    22787572.570    22787572.508   119749278.494 7
  93311297.544 6        43.000          40.300
  23063978.922                    23063988.488                   121202182.227 6
  94443203.122 7        40.000          43.500
  20478275.758                    20478281.340    20478281.395   107614173.234 8
  83855168.113 8        51.400          50.300
  23439923.992                    23439928.520    23439928.574   123177639.576 6
  95982589.663 6        41.400          39.400
 14  1  1  0 23  0.0000000  0  9G04G02G14G32G25G29G24G12G31
  23421360.844                                    23421368.238   123080011.084 6
  95906590.44843        40.600          21.700
  23818107.633                                    23818111.277   125164804.149 7
  97531203.95644        43.000          26.000
  21490920.945                                    21490926.758   112935467.525 7
  88001747.28345        46.300          33.700
  24981752.211                                                   131279981.847 5
                        33.300
  20445825.891                    20445835.164                   107443495.768 8
  83722306.842 8        50.300          50.300
  22767470.469                    22767476.988    22767477.102   119643678.762 7
  93229012.071 6        43.700          41.700
  23083026.656                    23083036.691                   121302283.460 6
  94521204.031 7        41.400          43.800
  20486476.055                    20486481.871    20486481.809   107657266.001 8
  83888746.888 8        52.000          50.200
  23421722.336                    23421727.684    23421727.387   123081990.540 6
  95908057.956 6        40.900          39.900
 14  1  1  0 23 30.0000000  0  9G04G02G14G32G25G29G24G12G31
  23421475.797                                    23421483.133   123080610.054 6
  95907057.17243        41.400          21.100
  23805398.359                                    23805403.410   125098021.725 7
  97479165.72744        42.900          24.800
  21495765.563                                    21495772.430   112960928.549 7
  88021587.03145        46.300          33.200
  24987231.125                                                   131308768.380 5
                        35.600
  20438821.781                    20438830.820                   107406686.052 8
  83693623.953 8        50.700          50.100
  22747423.727                    22747430.949    22747430.477   119538332.532 7
  93146924.127 6        42.900          40.800
  23102117.023                    23102126.707                   121402601.313 6
  94599373.758 7        40.900          43.800
  20494752.328                    20494758.320    20494758.199   107700756.633 8
  83922635.695 8        52.500          50.400
  23403551.516                    23403557.273    23403557.152   122986502.162 6
  95833651.431 6        41.600          40.200
 14  1  1  0 24  0.0000000  0  9G04G02G14G32G25G29G24G12G31
  23421710.305                                    23421716.586   123081839.123 6
  95908014.89543        41.000          21.300
  23792755.891                                    23792760.063   125031581.966 7
  97427394.50144        42.400          25.300
  21500724.383                                    21500730.371   112986984.953 7
  88041890.71345        46.100          33.000
  24992803.898                                                   131338062.311 5
                        34.100
  20431897.602                    20431907.051                   107370302.314 8
  83665272.985 8        51.000          50.100
