     2.11           OBSERVATION DATA    G (GPS)             RINEX VERSION / TYPE
teqc  2013Mar15                         20140106 12:52:59UTCPGM / RUN BY / DATE
Linux 2.4.20-8|Pentium IV|gcc -static|Linux|486/DX+         COMMENT
   0.033      (antenna height)                              COMMENT
 +55.21279000 (latitude)                                    COMMENT
  -1.68549700 (longitude)                                   COMMENT
0144.425      (elevation)                                   COMMENT
BIT 2 OF LLI FLAGS DATA COLLECTED UNDER A/S CONDITION       COMMENT
MORP (COGO code)                                            COMMENT
MORP                                                        MARKER NAME
13299S001                                                   MARKER NUMBER
Matt King           NCL                                     OBSERVER / AGENCY
4843K3347           TRIMBLE NETR8       4.19                REC # / TYPE / VERS
221                 AOAD/M_T        NONE                    ANT # / TYPE
  3645667.8584  -107277.2886  5215053.4919                  APPROX POSITION XYZ
        0.0330        0.0000        0.0000                  ANTENNA: DELTA H/E/N
     1     1                                                WAVELENGTH FACT L1/2
     8    C1    P1    C2    P2    L1    L2    S1    S2      # / TYPES OF OBSERV
    30.0000                                                 INTERVAL
    16                                                      LEAP SECONDS
Forced Modulo Decimation to 30 seconds                      COMMENT
 SNR is mapped to RINEX snr flag value [0-9]                COMMENT
  L1 & L2: min(max(int(snr_dBHz/6), 0), 9)                  COMMENT
  2014     1     3     0     0    0.0000000     GPS         TIME OF FIRST OBS
                                                            END OF HEADER
 14  1  3  0  0  0.0000000  0  9G04G02G14G32G25G29G24G12G31
  23471801.586                                    23471808.277   123345000.316 6
  96113136.23643        40.000          21.800
  24224261.797                                    24224266.379   127299370.278 7
  99194321.85344        42.400          24.500
  21398770.125                                    21398776.230   112451314.731 7
  87624397.14145        46.400          33.300
  24862736.055                                                   130654560.221 5
                        30.700
  20689427.109                    20689435.914                   108723652.532 8
  84719821.211 8        49.800          49.300
  23390312.602                    23390319.824    23390319.879   122916889.639 6
  95779450.575 6        41.200          39.800
  22539965.750                    22539976.078                   118448307.516 7
  92297467.982 7        42.900          45.100
  20275635.664                    20275640.660    20275640.539   106549296.616 8
  83025402.421 8        52.300          50.500
  23979197.961                    23979203.484    23979203.246   126011510.028 6
  98190829.737 6        40.200          36.900
 14  1  3  0  0 30.0000000  0  9G04G02G14G32G25G29G24G12G31
  23468412.922                                    23468419.672   123327194.483 6
  96099261.57743        41.100          21.100
  24209824.891                                    24209829.590   127223504.803 6
  99135205.92143        41.200          22.300
  21400230.117                                    21400236.105   112458988.668 7
  87630376.82845        47.600          33.600
  24865298.625                                                   130668031.240 5
                        32.300
  20680070.648                    20680079.570                   108674483.714 8
  84681507.850 8        49.900          48.900
  23369019.609                    23369026.832    23369027.004   122804993.767 6
  95692259.106 6        41.200          39.500
  22557721.414                    22557730.219                   118541608.010 7
  92370169.630 7        43.100          45.300
  20281558.414                    20281563.586    20281563.582   106580420.875 8
  83049655.089 8        52.700          50.500
  23960253.148                    23960258.262    23960257.730   125911950.541 6
  98113250.935 6        40.200          36.900
 14  1  3  0  1  0.0000000  0  9G04G02G14G32G25G29G24G12G31
  23465141.445                                    23465147.727   123309999.678 6
  96085863.05843        41.100          22.800
  24195438.844                                    24195443.133   127147905.245 6
  99076297.22143        41.000          21.500
  21401806.523                                    21401812.512   112467271.988 7
  87636831.35845        47.700          33.900
  24867964.359                                                   130682040.609 5
                        31.500
  20670791.695                    20670800.383                   108625723.486 8
  84643512.874 8        50.200          49.000
  23347760.602                    23347768.117    23347768.348   122693280.023 6
  95605209.544 6        40.900          39.300
  22575524.359                    22575533.516                   118635167.591 7
  92443073.169 7        42.600          44.500
  20287563.688                    20287568.684    20287568.563   106611978.132 8
  83074245.159 8        53.100          50.600
  23941328.203                    23941333.668    23941334.191   125812503.041 6
  98035759.385 6        40.900          37.500
 14  1  3  0  1 30.0000000  0  9G04G02G14G32G25G29G24G12G31
  23461985.625                                    23461992.844   123293416.137 6
  96072940.81643        40.300          21.700
  24181103.367                                    24181108.184   127072573.873 6
  99017597.45343        41.600          22.600
  21403499.016                                    21403504.594   112476163.829 7
  87643760.06645        47.300          34.300
  24870732.391                                                   130696587.102 5
                        33.600
  20661590.891                    20661600.105                   108577372.063 8
  84605836.447 8        49.800          49.300
  23326537.813                    23326545.328    23326545.383   122581750.603 6
  95518303.596 6        40.500          39.700
  22593377.742                    22593386.664                   118728984.388 7
  92516177.125 7        42.600          44.500
  20293650.711                    20293656.293    20293656.055   106643966.567 8
  83099171.208 8        52.500          50.600
  23922425.172                    23922431.457    23922431.219   125713168.382 6
  97958355.755 6        40.200          36.500
 14  1  3  0  2  0.0000000  0  9G04G02G14G32G25G29G24G12G31
  23458946.523                                    23458953.391   123277445.795 6
  96060496.42243        40.100          22.000
  24166819.844                                    24166824.543   126997513.954 6
  98959109.26444        41.800          24.400
  21405306.375                                    21405312.480   112485664.829 8
  87651163.44345        48.000          33.600
  24873603.039                                                   130711670.478 5
                        32.800
  20652467.992                    20652477.090                   108529430.698 8
  84568479.541 8        50.000          49.400
  23305350.656                    23305357.820    23305357.875   122470408.493 6
  95431543.599 6        41.800          40.100
  22611278.945                    22611288.336                   118823057.389 7
  92589480.752 7        44.200          44.600
  20299819.758                    20299825.281    20299825.277   106676386.063 8
  83124433.153 8        52.900          50.200
  23903544.203                    23903550.371    23903550.543   125613948.849 6
  97881041.844 6        41.200          37.200
 14  1  3  0  2 30.0000000  0  9G04G02G14G32G25G29G24G12G31
  23456023.977                                    23456030.727   123262088.232 6
  96048529.51743        39.000          22.000
  24152588.242                                    24152593.176   126922726.854 6
  98900833.63243        41.300          23.600
  21407230.461                                    21407236.332   112495773.587 7
  87659040.38945        46.400          34.200
  24876574.805                                                   130727288.704 5
                        33.500
  20643422.867                    20643431.672                   108481898.728 8
  84531441.648 8        49.500          49.700
  23284198.336                    23284205.031    23284205.438   122359254.934 6
  95344930.541 6        41.700          40.100
  22629228.734                    22629238.066                   118917383.704 7
  92662981.752 7        43.900          44.900
  20306070.422                    20306075.711    20306075.590   106709233.646 8
  83150028.665 8        52.500          50.500
  23884685.273                    23884691.383    23884691.203   125514844.797 6
  97803817.909 6        40.700          37.600
 14  1  3  0  3  0.0000000  0  9G04G02G14G32G25G29G24G12G31
  23453218.734                                    23453225.660   123247346.212 6
  96037042.24543        40.400          21.800
  24138410.258                                    24138414.488   126848216.968 6
  98842774.02143        41.800          22.800
  21409270.133                                    21409275.887   112506491.471 7
  87667391.98645        47.800          34.200
  24879649.891                                                   130743442.749 5
                        33.700
  20634456.305                    20634465.285                   108434778.550 8
  84494724.633 8        49.900          49.800
  23263082.906                    23263090.305    23263090.242   122248293.887 6
  95258467.509 6        41.000          40.400
  22647226.453                    22647236.020                   119011963.898 7
  92736680.574 7        43.000          44.600
  20312402.648                    20312408.289    20312408.227   106742509.760 8
  83175958.112 8        52.300          50.900
  23865849.891                    23865855.297    23865855.410   125415859.662 6
  97726686.647 6        40.500          37.200
 14  1  3  0  3 30.0000000  0  9G04G02G14G32G25G29G24G12G31
  23450530.133                                    23450537.352   123233220.456 6
  96026035.15343        39.000          21.700
  24124284.352                                    24124288.406   126773986.561 6
  98784932.18843        40.800          22.800
  21411425.711                                    21411431.523   112517818.229 7
  87676218.02145        46.000          34.300
  24882824.523                                                   130760131.418 5
                        34.500
  20625567.961                    20625576.648                   108388070.651 8
  84458328.873 8        49.100          49.300
  23242005.055                    23242011.926    23242012.098   122137527.806 7
  95172156.359 6        42.200          40.600
  22665272.289                    22665281.914                   119106796.399 7
  92810576.003 7        43.100          44.200
  20318816.000                    20318821.992    20318821.754   106776213.122 8
  83202220.468 8        52.300          50.600
  23847036.352                    23847042.461    23847042.281   125316994.658 6
  97649648.992 6        41.300          37.900
 14  1  3  0  4  0.0000000  0  9G04G02G14G32G25G29G24G12G31
  23447960.250                                    23447966.941   123219711.046 6
  96015508.33843        38.900          21.100
  24110212.352                                    24110216.406   126700037.944 6
  98727309.95543        40.900          23.500
  21413696.625                                    21413702.027   112529752.683 7
  87685517.59845        47.400          33.600
  24886102.344                                                   130777353.228 5
                        34.900
  20616758.195                    20616767.117                   108341775.054 8
  84422254.388 8        50.100          48.600
  23220964.836                    23220971.063    23220971.176   122026958.912 7
  95085998.837 6        43.000          40.300
  22683366.414                    22683375.746                   119201878.783 7
  92884666.157 7        43.300          44.100
  20325310.992                    20325316.691    20325316.512   106810342.263 8
  83228814.604 8        52.300          50.500
  23828245.242                    23828251.410    23828251.816   125218251.060 6
  97572705.934 6        40.800          38.100
 14  1  3  0  4 30.0000000  0  9G04G02G14G32G25G29G24G12G31
  23445506.398                                    23445514.027   123206819.152 6
  96005462.71143        39.300          21.500
  24096194.586                                    24096198.465   126626373.233 6
  98669908.93244        40.200          24.500
  21416082.828                                    21416088.641   112542294.813 7
  87695290.68045        47.100          33.700
  24889480.672                                                   130795107.346 5
                        35.400
  20608026.648                    20608035.863                   108295892.450 8
  84386501.710 8        49.900          49.400
  23199961.805                    23199968.500    23199968.438   121916589.100 7
  94999996.442 6        42.600          40.300
  22701507.047                    22701516.848                   119297209.884 7
  92958950.107 7        43.200          44.100
  20331886.141                    20331891.664    20331891.719   106844895.961 8
  83255739.559 8        52.000          50.600
  23809478.430                    23809484.363    23809484.477   125119630.304 6
  97495858.599 6        40.900          38.300
 14  1  3  0  5  0.0000000  0  9G04G02G14G32G25G29G24G12G31
  23443171.516                                    23443178.266   123194545.137 6
  95995898.55243        39.400          21.500
  24082230.773                                    24082235.590   126552995.175 6
  98612731.27843        39.800          22.500
  21418585.047                                    21418591.152   112555444.199 7
  87705536.95845        47.400          34.000
  24892961.883                                                   130813392.620 6
                        36.300
  20599374.633                    20599383.496                   108250423.320 8
  84351071.219 8        49.900          49.000
  23178996.641                    23179004.625    23179004.563   121806420.935 7
  94914151.162 6        42.000          40.500
  22719695.008                    22719704.223                   119392787.994 7
  93033426.527 7        44.000          44.400
  20338542.063                    20338547.820    20338547.816   106879872.793 8
  83282994.236 8        52.500          50.500
  23790735.492                    23790741.660    23790741.480   125021134.192 6
  97419108.373 6        41.500          38.300
 14  1  3  0  5 30.0000000  0  9G04G02G14G32G25G29G24G12G31
  23440952.484                                    23440959.879   123182890.437 6
  95986816.95643        40.400          21.700
  24068322.438                                    24068327.195   126479906.533 6
  98555779.12344        40.500          24.300
  21421203.344                                    21421208.570   112569200.559 7
  87716256.19745        47.600          33.300
  24896541.023                                                   130832208.736 6
                        36.000
  20590800.742                    20590810.367                   108205368.621 8
  84315963.666 8        50.300          49.400
  23158071.391                    23158078.965    23158078.785   121696457.292 7
  94828465.277 6        42.500          40.200
  22737930.195                    22737939.176                   119488611.830 7
  93108094.419 7        43.000          44.300
  20345278.297                    20345284.406    20345284.344   106915271.881 8
  83310577.943 8        51.900          50.000
  23772016.641                    23772021.754    23772021.633   124922764.532 6
  97342456.700 6        41.200          38.800
 14  1  3  0  6  0.0000000  0  9G04G02G14G32G25G29G24G12G31
  23438853.320                                    23438860.305   123171855.662 6
  95978218.43843        40.100          20.600
  24054469.695                                    24054474.512   126407110.129 6
  98499054.68443        39.400          22.800
  21423936.227                                    21423942.449   112583563.692 7
  87727448.24145        46.100          33.700
  24900222.813                                                   130851554.218 5
                        34.600
  20582306.305                    20582314.934                   108160728.841 8
  84281179.427 8        49.900          49.500
  23137185.906                    23137193.070    23137192.949   121586700.511 7
  94742940.606 6        42.500          41.000
  22756211.273                    22756220.723                   119584680.191 7
  93182952.873 7        42.600          44.300
  20352094.461                    20352100.102    20352100.215   106951091.996 8
  83338489.718 8        51.400          50.300
  23753321.703                    23753327.227    23753327.574   124824522.984 6
  97265904.851 6        41.400          38.300
 14  1  3  0  6 30.0000000  0  9G04G02G14G32G25G29G24G12G31
  23436870.914                                    23436878.016   123161440.901 6
  95970103.04343        39.900          19.900
  24040672.688                                    24040677.328   126334607.793 6
  98442559.38143        40.400          23.600
  21426784.992                                    21426790.277   112598532.776 7
  87739112.46245        47.400          33.600
  24904004.063                                                   130871427.816 5
                        35.400
  20573890.555                    20573899.477                   108116504.040 8
  84246718.541 8        50.600          49.600
  23116339.148                    23116346.723    23116346.777   121477152.441 7
  94657578.591 6        42.500          40.900
  22774539.055                    22774547.742                   119680990.757 7
  93258000.052 7        42.900          45.000
  20358990.453                    20358996.035    20358995.855   106987330.873 8
  83366727.810 8        52.500          51.000
  23734651.414                    23734657.172    23734657.461   124726410.725 6
  97189453.756 6        41.500          37.700
 14  1  3  0  7  0.0000000  0  9G04G02G14G32G25G29G24G12G31
  23435008.102                                    23435014.559   123151646.502 6
  95962471.01443        40.600          20.600
  24026932.734                                    24026936.906   126262401.536 6
  98386294.83244        40.300          24.200
  21429748.766                                    21429754.109   112614106.546 7
  87751247.86645        47.700          33.700
  24907886.156                                                   130891827.855 5
                        34.900
  20565553.430                    20565562.879                   108072694.219 8
  84212581.021 8        51.200          49.600
  23095532.867                    23095540.617    23095540.320   121367815.011 7
  94572380.671 6        42.600          41.100
  22792911.000                    22792920.625                   119777541.591 7
  93333234.460 7        42.600          44.700
  20365966.141                    20365971.781    20365971.602   107023987.739 8
  83395291.599 8        52.300          50.200
  23716006.531                    23716012.172    23716012.285   124628428.664 6
  97113104.106 6        41.900          39.100
 14  1  3  0  7 30.0000000  0  9G04G02G14G32G25G29G24G12G31
  23433261.586                                    23433269.098   123142474.921 6
  95955324.38743        41.700          20.600
  24013249.539                                    24013253.535   126190495.793 6
  98330264.41844        41.100          25.000
  21432827.586                                    21432832.578   112630286.396 7
  87763855.53445        47.900          34.000
  24911868.977                                                   130912755.062 5
                        34.600
  20557296.797                    20557305.426                   108029301.968 8
  84178768.878 8        51.000          49.800
  23074767.836                    23074775.117    23074775.113   121258692.613 7
  94487350.274 6        42.400          40.400
  22811330.328                    22811338.957                   119874332.952 7
  93408656.275 7        42.300          44.500
  20373021.391                    20373027.324    20373026.969   107061062.816 8
  83424181.272 8        52.500          50.800
  23697386.555                    23697392.488    23697392.602   124530580.381 6
  97036858.695 6        41.600          38.700
 14  1  3  0  8  0.0000000  0  9G04G02G14G32G25G29G24G12G31
  23431636.500                                    23431641.785   123133926.503 6
  95948663.27543        41.800          21.500
  23999623.336                                    23999628.270   126118892.900 6
  98274469.99543        39.300          23.200
  21436022.039                                    21436027.617   112647071.691 7
  87776934.98345        47.300          33.100
  24915950.891                                                   130934208.220 5
                        34.400
  20549118.820                    20549127.625                   107986327.352 8
  84145282.169 8        51.300          49.600
  23054043.141                    23054050.715    23054050.945   121149787.309 7
  94402489.079 6        42.400          39.900
  22829794.039                    22829803.547                   119971362.756 7
  93484263.895 7        43.000          44.000
  20380155.664                    20380161.070    20380161.184   107098554.341 8
  83453395.454 8        52.800          50.600
  23678792.648                    23678798.230    23678798.168   124432867.313 7
  96960718.655 6        42.000          39.200
 14  1  3  0  8 30.0000000  0  9G04G02G14G32G25G29G24G12G31
  23430127.234                                    23430134.043   123126001.430 6
  95942487.87843        41.200          21.300
  23986056.117                                    23986060.113   126047594.499 6
  98218912.89243        40.700          23.500
  21439330.625                                    21439336.672   112664461.297 8
  87790485.31745        48.200          33.600
  24920134.047                                                   130956185.615 5
                        34.000
  20541020.578                    20541029.441                   107943770.404 8
  84112120.912 8        51.400          49.700
  23033361.016                    23033368.473    23033368.410   121041100.624 7
  94317798.217 6        42.200          40.400
  22848304.203                    22848313.125                   120068629.512 7
  93560056.153 7        42.400          44.500
  20387369.039                    20387375.090    20387374.793   107136460.645 8
  83482932.831 8        52.300          50.500
  23660223.680                    23660229.320    23660229.609   124335290.579 6
  96884684.846 6        41.900          38.700
 14  1  3  0  9  0.0000000  0  9G04G02G14G32G25G29G24G12G31
  23428738.430                                    23428744.945   123118701.068 6
  95936799.28443        41.600          20.600
  23972547.594                                    23972551.297   125976604.310 6
  98163595.90243        41.200          23.500
  21442755.125                                    21442760.059   112682455.792 7
  87804507.00245        47.700          33.900
  24924414.859                                                   130978687.096 5
                        35.500
  20533001.828                    20533010.633                   107901632.738 8
  84079286.362 8        51.000          49.800
  23012721.109                    23012728.918    23012728.797   120932636.548 6
  94233280.818 6        41.600          40.400
  22866858.320                    22866867.184                   120166132.643 6
  93636032.574 7        41.900          44.100
  20394661.516                    20394666.805    20394666.742   107174781.513 8
  83512793.247 8        52.200          50.900
  23641681.930                    23641687.160    23641687.449   124237852.716 7
  96808759.256 6        42.600          38.300
 14  1  3  0  9 30.0000000  0  9G04G02G14G32G25G29G24G12G31
  23427467.867                                    23427473.504   123112024.587 6
  95931596.85943        41.600          20.900
  23959096.695                                    23959100.516   125905923.096 6
  98108519.66943        41.800          22.900
  21446293.992                                    21446299.512   112701053.066 7
  87818998.38445        47.400          33.600
  24928796.680                                                   131001710.110 5
                        33.900
  20525063.078                    20525072.117                   107859913.322 8
  84046777.734 8        51.900          50.000
  22992123.625                    22992130.965    22992130.727   120824395.568 7
  94148937.248 6        42.100          40.800
  22885456.977                    22885466.191                   120263868.418 7
  93712190.284 7        42.300          44.600
  20402031.969                    20402037.316    20402037.371   107213513.738 8
  83542974.198 8        52.100          50.200
  23623167.164                    23623172.453    23623172.918   124140554.141 6
  96732942.193 6        41.700          38.500
 14  1  3  0 10  0.0000000  0  9G04G02G14G32G25G29G24G12G31
  23426316.938                                    23426322.926   123105974.098 6
  95926882.20343        41.800          22.300
  23945706.133                                    23945710.656   125835555.202 7
  98053687.59044        42.200          24.500
  21449947.781                                    21449953.184   112720253.950 7
  87833960.11645        47.500          33.500
  24933277.320                                                   131025254.834 5
                        34.100
  20517203.977                    20517213.016                   107818614.181 8
  84014596.587 8        51.100          50.000
  22971568.469                    22971575.926    22971575.746   120716381.958 6
  94064770.872 6        41.400          40.500
  22904099.023                    22904108.648                   120361837.373 6
  93788529.703 7        41.300          44.200
  20409480.609                    20409486.367    20409486.480   107252658.095 8
  83573476.297 8        51.900          50.200
  23604678.586                    23604684.402    23604684.281   124043397.903 6
  96657236.047 6        41.500          39.400
 14  1  3  0 10 30.0000000  0  9G04G02G14G32G25G29G24G12G31
  23425283.719                                    23425290.469   123100548.864 6
  95922654.74443        41.000          20.900
  23932375.438                                    23932379.961   125765501.953 6
  97999100.67944        41.600          24.700
  21453715.930                                    21453721.977   112740056.898 7
  87849390.98045        47.700          33.600
  24937855.414                                                   131049319.098 5
                        33.100
  20509424.961                    20509434.176                   107777734.723 8
  83982742.465 8        51.700          50.000
  22951058.063                    22951065.227    22951065.281   120608596.500 6
  93980782.248 6        41.400          40.300
  22922786.078                    22922795.293                   120460036.676 6
  93865048.599 7        40.900          44.500
  20417007.617                    20417012.906    20417012.785   107292212.283 8
  83604297.740 8        51.700          50.400
  23586217.555                    23586222.961    23586223.016   123946384.392 6
  96581641.110 6        40.400          39.200
 14  1  3  0 11  0.0000000  0  9G04G02G14G32G25G29G24G12G31
  23424370.469                                    23424377.570   123095749.719 6
  95918915.15443        40.800          20.100
  23919105.250                                    23919109.305   125695766.114 7
  97944761.11944        42.100          26.000
  21457598.961                                    21457604.129   112760461.344 7
  87865290.54845        47.600          33.400
  24942534.867                                                   131073901.844 5
                        33.300
  20501725.563                    20501734.719                   107737275.712 8
  83951215.972 8        51.300          50.000
  22930590.914                    22930598.781    22930598.543   120501042.398 7
  93896973.925 6        42.400          40.300
  22941516.047                    22941526.199                   120558465.029 6
  93941745.969 7        40.900          43.800
  20424612.391                    20424617.563    20424617.383   107332174.729 8
  83635437.303 8        51.900          50.400
  23567784.039                    23567789.387    23567789.207   123849515.587 6
  96506158.917 6        40.300          38.700
 14  1  3  0 11 30.0000000  0  9G04G02G14G32G25G29G24G12G31
  23423576.695                                    23423583.094   123091576.554 6
  95915663.34843        40.900          20.400
  23905895.750                                    23905900.684   125626349.735 7
  97890670.46744        42.400          25.800
  21461596.109                                    21461602.156   112781466.127 7
  87881657.90245        46.500          33.800
  24947309.477                                                   131099001.478 5
                        32.900
  20494106.852                    20494115.480                   107697237.166 8
  83920017.107 8        50.900          50.300
  22910168.367                    22910175.473    22910175.586   120393721.108 6
  93813346.995 6        41.700          40.500
  22960290.023                    22960299.063                   120657120.412 6
  94018620.229 7        41.200          44.200
  20432294.313                    20432299.895    20432299.656   107372543.995 8
  83666893.877 8        51.600          50.000
  23549377.898                    23549383.949    23549384.297   123752792.892 6
  96430790.594 6        41.300          38.700
 14  1  3  0 12  0.0000000  0  9G04G02G14G32G25G29G24G12G31
  23422901.219                                    23422908.906   123088029.985 6
  95912899.77243        40.500          20.100
  23892747.516                                    23892751.980   125557255.348 7
  97836830.71443        42.200          23.800
  21465706.930                                    21465713.152   112803070.883 7
  87898492.77545        46.300          32.500
  24952183.531                                                   131124616.838 5
                        31.900
  20486567.648                    20486576.863                   107657619.669 8
  83889146.330 8        51.200          49.600
  22889791.055                    22889798.512    22889798.801   120286635.496 7
  93729903.704 6        42.000          40.600
  22979105.953                    22979115.578                   120756001.917 6
  94095670.704 7        41.900          43.700
  20440053.148                    20440058.848    20440059.020   107413318.913 8
  83698666.535 8        51.600          50.500
  23531000.969                    23531006.434    23531006.020   123656218.101 6
  96355537.519 6        40.900          39.000
 14  1  3  0 12 30.0000000  0  9G04G02G14G32G25G29G24G12G31
  23422345.906                                    23422353.359   123085111.676 6
  95910625.76643        40.300          20.100
  23879661.484                                    23879665.070   125488486.130 7
  97783244.34544        42.300          25.000
  21469932.695                                    21469938.508   112825275.857 7
  87915795.34945        46.700          33.400
  24957156.445                                                   131150747.797 5
                        32.800
  20479109.133                    20479117.703                   107618424.884 8
  83858604.943 8        50.100          50.200
  22869458.133                    22869465.883    22869465.879   120179788.973 6
  93646646.726 6        41.300          41.400
  22997965.727                    22997974.766                   120855108.398 6
  94172896.489 7        40.600          43.400
  20447889.734                    20447895.844    20447896.016   107454499.389 8
  83730755.215 8        51.400          50.200
  23512651.852                    23512656.613    23512656.727   123559793.977 6
  96280401.845 6        40.600          38.800
 14  1  3  0 13  0.0000000  0  9G04G02G14G32G25G29G24G12G31
  23421910.328                                    23421917.313   123082822.981 6
  95908842.34043        40.100          19.900
  23866637.617                                    23866640.910   125420045.949 7
  97729914.35643        42.000          23.900
  21474272.391                                    21474278.262   112848081.343 7
  87933565.85945        45.800          34.000
  24962227.742                                                   131177393.973 5
                        31.300
  20471731.531                    20471740.746                   107579654.292 8
  83828394.094 8        50.400          50.200
  22849172.422                    22849178.941    22849179.113   120073184.891 7
  93563578.663 6        42.500          40.900
  23016867.648                    23016877.215                   120954439.505 6
  94250297.299 7        40.300          43.900
  20455803.461                    20455809.277    20455809.332   107496085.215 8
  83763159.757 8        51.900          49.800
  23494332.430                    23494337.250    23494337.012   123463523.191 6
  96205385.659 6        41.200          39.200
 14  1  3  0 13 30.0000000  0  9G04G02G14G32G25G29G24G12G31
  23421594.367                                    23421601.996   123081162.874 6
  95907548.77443        40.300          19.900
  23853676.703                                    23853680.230   125351935.923 6
  97676841.66544        41.800          26.000
  21478726.055                                    21478732.043   112871485.511 7
  87951802.86545        46.800          33.000
  24967396.914                                                   131204552.740 5
                        34.300
  20464433.953                    20464442.992                   107541306.981 8
  83798513.077 8        50.100          50.500
  22828932.508                    22828939.320    22828939.141   119966824.283 7
  93480700.326 6        42.300          40.900
  23035812.094                    23035821.836                   121053992.609 6
  94327871.092 7        40.900          43.900
  20463793.273                    20463799.441    20463799.262   107538073.540 8
  83795877.925 8        51.300          49.900
  23476041.570                    23476046.918    23476047.266   123367406.151 6
  96130489.266 6        41.300          39.200
 14  1  3  0 14  0.0000000  0  9G04G02G14G32G25G29G24G12G31
  23421397.984                                    23421405.496   123080129.838 6
  95906743.80243        41.000          20.400
  23840778.164                                    23840782.277   125284156.814 7
  97624026.85644        42.400          25.100
  21483293.109                                    21483298.805   112895485.718 7
  87970504.32845        46.600          33.300
  24972661.234                                                   131232221.369 5
                        35.300
  20457217.008                    20457226.223                   107503381.904 8
  83768961.073 8        50.800          50.300
  22808739.609                    22808746.246    22808746.242   119860708.113 7
  93398012.476 6        42.900          40.900
  23054797.609                    23054808.055                   121153764.228 6
  94405615.174 7        39.900          43.800
  20471859.398                    20471865.508    20471865.504   107580461.219 8
  83828907.289 8        51.600          50.500
  23457780.688                    23457785.449    23457785.563   123271443.434 6
  96055713.130 6        41.000          39.800
 14  1  3  0 14 30.0000000  0  9G04G02G14G32G25G29G24G12G31
  23421321.352                                    23421328.395   123079725.824 6
  95906428.97343        40.100          20.100
  23827944.664                                    23827948.250   125216712.526 7
  97571472.91844        42.900          25.600
  21487973.570                                    21487979.559   112920082.580 7
  87989670.69945        46.900          33.100
  24978023.391                                                   131260399.722 5
                        35.100
  20450080.492                    20450090.469                   107465880.905 8
  83739739.519 8        49.900          49.800
  22788593.313                    22788600.184    22788600.004   119754840.131 7
  93315517.988 6        42.700          41.100
  23073825.836                    23073835.578                   121253754.571 6
  94483529.674 7        40.900          44.300
  20480001.688                    20480007.563    20480007.266   107623248.925 8
  83862248.359 8        51.600          49.800
  23439549.008                    23439554.824    23439554.879   123175637.447 6
  95981059.120 6        41.400          39.800
 14  1  3  0 15  0.0000000  0  9G04G02G14G32G25G29G24G12G31
  23421364.445                                    23421371.430   123079951.326 6
  95906604.69843        41.600          20.100
  23815173.992                                    23815178.340   125149605.767 7
  97519181.97344        42.500          25.000
  21492767.172                                    21492773.102   112945275.673 7
  88009301.68645        46.300          32.500
  24983481.820                                                   131289086.864 5
                        34.400
  20443025.609                    20443034.941                   107428804.654 8
  83710848.932 8        51.300          50.500
  22768494.992                    22768501.805    22768501.918   119649222.797 7
  93233218.805 6        43.700          41.100
  23092895.055                    23092904.035                   121353962.070 6
  94561613.407 7        40.000          43.800
  20488219.852                    20488225.199    20488224.961   107666435.450 8
  83895900.196 8        51.700          50.000
  23421348.227                    23421353.809    23421353.395   123079990.464 6
  95906529.004 6        40.600          40.200
 14  1  3  0 15 30.0000000  0  9G04G02G14G32G25G29G24G12G31
  23421527.344                                    23421534.270   123080807.798 6
  95907272.08543        41.400          20.400
  23802468.836                                    23802473.418   125082840.078 7
  97467156.74444        42.200          24.900
  21497674.992                                    21497681.215   112971065.223 7
  88029397.44045        45.900          33.300
  24989038.375                                                   131318282.662 5
                        35.100
  20436051.281                    20436060.086                   107392154.868 8
  83682290.662 8        50.700          50.500
  22748445.523                    22748452.277    22748452.098   119543859.848 7
  93151117.849 6        43.600          41.400
  23112004.430                    23112013.938                   121454386.327 6
  94639866.024 7        39.700          43.400
  20496513.922                    20496518.801    20496519.148   107710020.716 8
  83929862.736 8        52.000          49.800
  23403178.367                    23403183.832    23403183.477   122984505.492 6
  95832125.133 6        41.700          40.100
 14  1  3  0 16  0.0000000  0  9G04G02G14G32G25G29G24G12G31
  23421810.180                                    23421816.695   123082292.707 6
  95908429.18643        41.900          22.000
  23789828.508                                    23789833.031   125016415.180 7
  97415397.09344        42.500          24.400
  21502695.711                                    21502701.875   112997447.668 7
  88049955.18145        46.100          33.900
  24994691.258                                                   131347982.790 5
                        33.300
  20429157.656                    20429166.637                   107355929.190 8
  83654062.858 8        50.700          49.900
  22728443.742                    22728450.789    22728451.078   119438750.911 7
  93069214.829 6        42.800          41.100
  23131155.625                    23131165.074                   121555023.057 6
  94718284.189 7        41.000          44.300
  20504882.969                    20504888.375    20504888.371   107754000.473 8
  83964132.682 8        51.900          49.900
  23385038.797                    23385044.320    23385043.730   122889181.842 6
  95757846.967 6        41.800          39.700
 14  1  3  0 16 30.0000000  0  9G04G02G14G32G25G29G24G12G31
  23422212.516                                    23422218.680   123084407.850 7
  95910077.34743        42.600          22.200
  23777254.516                                    23777258.160   124950335.393 7
  97363906.42744        42.500          25.300
  21507829.422                                    21507835.176   113024423.749 7
  88070975.49745        45.800          33.000
  25000436.227                                                   131378187.652 5
                        32.800
  20422345.539                    20422354.344                   107320129.773 8
  83626167.204 8        50.800          50.100
  22708490.773                    22708498.172    22708498.227   119333899.989 7
  92987512.856 6        43.600          40.900
  23150346.469                    23150356.035                   121655872.805 6
  94796868.351 7        40.600          43.400
  20513327.148                    20513332.965    20513332.902   107798374.773 8
  83998710.055 8        52.000          49.600
  23366930.008                    23366935.707    23366935.586   122794022.325 7
  95683696.702 6        43.000          40.000
 14  1  3  0 17  0.0000000  0  9G04G02G14G32G25G29G24G12G31
  23422735.141                                    23422741.773   123087154.416 6
  95912217.53143        41.900          21.500
  23764745.859                                    23764750.031   124884603.733 7
  97312686.99944        42.800          26.200
  21513075.750                                    21513081.094   113051993.709 7
  88092458.58345        46.500          32.600
  25006281.133                                                   131408896.811 5
                        32.200
  20415614.516                    20415623.438                   107284757.944 8
  83598604.743 8        51.500          50.000
  22688587.914                    22688595.371    22688595.016   119229310.722 7
  92906014.777 6        44.200          40.900
  23169578.266                    23169587.539                   121756934.034 6
  94875617.297 7        41.300          43.900
  20521846.688                    20521852.445    20521852.207   107843144.123 8
  84033595.260 8        52.100          49.700
  23348854.117                    23348858.996    23348858.465   122699029.829 7
  95609676.568 6        42.100          40.000
 14  1  3  0 17 30.0000000  0  9G04G02G14G32G25G29G24G12G31
  23423377.781                                    23423384.824   123090531.122 7
  95914848.73843        42.200          20.600
  23752302.906                                    23752307.664   124819221.229 6
  97261739.60244        41.800          25.000
  21518433.969                                    21518439.547   113080155.198 7
  88114402.59945        46.800          33.100
  25012220.578                                                   131440107.135 5
                        31.000
  20408964.313                    20408973.469                   107249812.670 8
  83571374.658 8        51.700          50.000
  22668735.602                    22668742.004    22668742.059   119124983.737 7
  92824721.054 6        44.300          41.400
  23188849.133                    23188858.523                   121858204.588 6
  94954529.355 7        41.400          43.900
  20530440.227                    20530446.395    20530446.273   107888305.547 8
  84068785.982 8        51.900          49.800
  23330809.797                    23330814.910    23330814.613   122604205.333 7
  95535787.356 6        42.300          40.200
 14  1  3  0 18  0.0000000  0  9G04G02G14G32G25G29G24G12G31
  23424140.594                                    23424146.934   123094539.481 6
  95917972.13743        41.700          20.600
  23739928.922                                    23739933.035   124754191.733 7
  97211067.29943        42.200          23.600
  21523906.031                                    21523912.137   113108908.526 7
  88136807.79145        46.800          32.500
  25018254.641                                                   131471818.835 5
                        30.500
  20402396.266                    20402405.422                   107215295.855 8
  83544478.436 8        51.500          50.300
  22648933.828                    22648940.113    22648940.051   119020922.595 7
  92743634.497 6        45.200          40.800
  23208160.477                    23208169.340                   121959684.321 6
  95033604.412 7        41.600          44.300
  20539108.813                    20539115.098    20539114.977   107933859.003 8
  84104282.186 8        51.800          50.100
  23312797.078                    23312802.602    23312802.598   122509551.135 7
  95462030.837 6        43.300          40.400
 14  1  3  0 18 30.0000000  0  9G04G02G14G32G25G29G24G12G31
  23425023.305                                    23425030.348   123099178.317 6
  95921586.79843        41.100          21.800
  23727621.961                                    23727625.723   124689516.033 7
  97160670.66744        42.100          26.300
  21529489.703                                    21529495.574   113138251.160 7
  88159672.17345        46.800          32.800
  25024383.781                                                   131504028.874 5
                        30.100
  20395909.328                    20395917.547                   107181206.549 8
  83517915.341 8        51.900          50.200
  22629182.406                    22629188.691    22629188.980   118917128.933 7
  92662756.357 6        44.800          41.500
  23227510.242                    23227519.809                   122061369.632 7
  95112839.658 7        42.000          43.800
  20547851.297                    20547856.996    20547856.875   107979801.642 8
  84140081.639 8        52.200          49.500
  23294817.406                    23294822.930    23294823.219   122415068.005 7
  95388407.618 6        43.200          41.000
 14  1  3  0 19  0.0000000  0  9G04G02G14G32G25G29G24G12G31
  23426025.813                                    23426032.152   123104447.977 6
  95925693.03743        41.300          20.900
  23715382.203                                    23715386.609   124625197.315 7
  97110552.19744        42.500          25.300
  21535185.563                                    21535191.492   113168182.628 7
  88182995.39045        46.500          33.000
  25030606.789                                                   131536736.348 4
                        29.400
  20389503.914                    20389512.191                   107147545.455 8
  83491685.916 8        51.900          50.500
  22609481.703                    22609489.336    22609488.805   118813604.885 7
  92582088.317 6        45.300          41.800
  23246899.414                    23246908.863                   122163259.675 7
  95192234.415 7        42.100          44.300
  20556667.797                    20556673.496    20556673.434   108026132.104 8
  84176183.299 8        52.100          49.200
  23276871.586                    23276876.641    23276876.344   122320758.056 7
  95314919.339 6        43.000          40.800
 14  1  3  0 19 30.0000000  0  9G04G02G14G32G25G29G24G12G31
  23427148.164                                    23427155.207   123110348.073 6
  95930290.51143        40.900          20.100
  23703210.844                                    23703215.191   124561237.396 7
  97060713.32444        42.200          25.600
  21540993.523                                    21540999.102   113198701.531 7
  88206776.35345        47.000          32.300
  25036927.102                                                   131569939.340 4
                        27.300
  20383179.633                    20383188.496                   107114312.755 8
  83465790.309 8        51.800          50.000
  22589833.750                    22589840.211    22589840.324   118710352.774 7
  92501632.160 6        45.100          41.900
  23266327.297                    23266336.395                   122265352.563 7
  95271787.245 7        42.100          44.500
  20565557.781                    20565564.125    20565564.063   108072849.703 8
  84212586.626 8        51.600          49.800
  23258957.742                    23258963.734    23258963.613   122226622.889 7
  95241567.262 6        42.800          40.900
 14  1  3  0 20  0.0000000  0  9G04G02G14G32G25G29G24G12G31
  23428391.313                                    23428397.945   123116879.200 6
  95935379.67143        41.400          21.100
  23691108.250                                    23691112.773   124497639.492 7
  97011156.56444        42.200          25.000
  21546912.641                                    21546918.395   113229807.595 7
  88231014.84045        46.400          32.800
  25043338.164                                                   131603636.654 4
                        29.900
  20376937.438                    20376946.594                   107081509.205 8
  83440229.102 8        51.300          50.300
  22570238.156                    22570244.207    22570244.320   118607375.375 7
  92421390.061 6        45.100          41.400
  23285792.555                    23285802.414                   122367647.131 7
  95351497.243 7        42.000          43.800
  20574521.547                    20574527.188    20574527.301   108119953.001 8
  84249290.490 8        51.400          49.700
  23241078.375                    23241083.898    23241083.602   122132664.960 7
  95168353.299 6        43.300          41.100
 14  1  3  0 20 30.0000000  0  9G04G02G14G32G25G29G24G12G31
  23429754.484                                    23429761.527   123124042.121 6
  95940961.14443        41.100          21.800
  23679076.148                                    23679080.027   124434406.702 7
  96961884.31944        42.600          26.000
  21552943.594                                    21552949.055   113261500.504 7
  88255710.60845        47.200          32.600
  25049846.156                                                   131637827.609 4
                        26.800
  20370777.234                    20370786.156                   107049136.127 8
  83415003.325 8        51.500          50.000
  22550694.461                    22550701.391    22550701.621   118504676.066 7
  92341364.662 6        45.300          41.700
  23305296.945                    23305306.629                   122470142.823 7
  95431363.951 7        42.200          43.800
  20583558.000                    20583563.758    20583563.871   108167441.671 8
  84286294.648 8        51.700          49.500
  23223232.805                    23223238.680    23223238.852   122038886.750 6
  95095279.374 6        41.800          41.400
 14  1  3  0 21  0.0000000  0  9G04G02G14G32G25G29G24G12G31
  23431237.539                                    23431244.172   123131834.587 6
  95947033.18343        41.400          21.300
  23667112.969                                    23667116.262   124371538.458 6
  96912896.09044        41.500          25.400
  21559085.570                                    21559091.090   113293776.705 7
  88280860.89345        47.000          32.400
  25056443.781                                                   131672508.68914
                        28.000
  20364697.953                    20364706.934                   107017191.534 8
  83390111.433 8        51.200          50.100
  22531204.172                    22531211.453    22531211.508   118402254.877 7
  92261555.976 7        45.700          42.300
  23324839.156                    23324848.723                   122572835.576 7
  95511384.211 7        42.000          43.400
  20592667.742                    20592673.324    20592673.496   108215312.021 8
  84323596.218 8        52.000          50.000
  23205421.859                    23205427.441    23205427.379   121945287.545 7
  95022344.924 6        42.400          41.700
 14  1  3  0 21 30.0000000  0  9G04G02G14G32G25G29G24G12G31
  23432840.492                                    23432847.770   123140258.459 6
  95953597.23943        41.900          21.700
  23655218.688                                    23655223.504   124309039.305 7
  96864195.46744        42.800          24.700
  21565338.508                                    21565344.086   113326637.186 7
  88306466.46745        47.200          33.500
  25063138.492                                                   131707680.378 5
                        30.100
  20358701.266                    20358710.480                   106985677.946 8
  83365555.398 8        51.100          50.200
  22511767.828                    22511775.637    22511775.574   118300116.085 7
  92181967.349 7        44.600          42.100
  23344418.219                    23344428.430                   122675725.912 6
  95591558.458 7        41.800          43.200
  20601849.914                    20601855.555    20601855.492   108263564.903 8
  84361195.864 8        51.800          49.400
  23187645.086                    23187650.727    23187650.430   121851871.274 7
  94949553.020 6        42.000          41.800
 14  1  3  0 22  0.0000000  0  9G04G02G14G32G25G29G24G12G31
  23434563.766                                    23434570.223   123149311.973 7
  95960651.90343        42.400          22.000
  23643396.500                                    23643400.379   124246909.989 7
  96815783.07044        42.000          25.800
  21571702.250                                    21571708.063   113360078.930 7
  88332524.96045        46.800          32.100
  25069922.648                                                   131743338.060 5
                        30.700
  20352786.078                    20352795.645                   106954593.761 8
  83341333.956 8        51.100          50.500
  22492385.367                    22492393.000    22492392.938   118198260.198 7
  92102599.179 6        44.700          41.800
  23364034.188                    23364044.281                   122778810.477 6
  95671884.043 7        41.800          43.000
  20611104.328                    20611109.852    20611109.906   108312197.180 8
  84399091.142 8        51.500          49.300
  23169902.953                    23169909.063    23169908.941   121758638.221 6
  94876903.897 6        41.600          41.400
 14  1  3  0 22 30.0000000  0  9G04G02G14G32G25G29G24G12G31
  23436406.055                                    23436413.391   123158997.454 7
  95968199.02643        42.600          22.200
  23631644.625                                    23631648.680   124185155.546 7
  96767662.76244        42.100          26.500
  21578176.922                                    21578182.559   113394103.403 7
  88359037.54245        47.400          32.300
  25076802.563                                                   131779484.136 5
                        30.300
  20346953.508                    20346962.078                   106923942.078 8
  83317449.532 8        51.400          49.900
  22473057.414                    22473064.695    22473064.691   118096692.142 7
  92023455.280 6        44.600          41.400
  23383688.594                    23383697.984                   122882090.002 7
  95752361.524 7        42.300          43.600
  20620431.289                    20620436.871    20620436.574   108361210.241 8
  84437283.138 8        51.700          49.100
  23152197.242                    23152203.117    23152203.055   121665592.917 6
  94804401.061 6        41.800          41.700
 14  1  3  0 23  0.0000000  0  9G04G02G14G32G25G29G24G12G31
  23438369.320                                    23438376.949   123169313.839 7
  95976237.76243        42.600          22.300
  23619964.297                                    23619968.879   124123777.168 6
  96719835.52444        41.800          25.600
  21584762.039                                    21584767.969   113428708.684 7
  88386002.68745        47.000          32.600
  25083771.594                                                   131816115.96114
                        28.600
  20341202.695                    20341211.793                   106893722.114 8
  83293901.504 8        50.900          50.700
  22453784.023                    22453791.422    22453791.652   117995413.157 7
  91944536.624 7        44.100          42.200
  23403378.281                    23403388.375                   122985562.076 6
  95832989.063 7        41.400          43.500
  20629829.992                    20629835.926    20629835.863   108410601.511 8
  84475769.837 8        51.700          49.100
  23134527.344                    23134533.277    23134532.922   121572735.176 7
  94732044.384 7        42.600          42.700
 14  1  3  0 23 30.0000000  0  9G04G02G14G32G25G29G24G12G31
  23440452.203                                    23440459.773   123180260.804 7
  95984767.85943        42.700          22.600
  23608357.188                                    23608360.598   124062776.889 7
  96672302.88444        42.200          26.400
  21591457.523                                    21591463.746   113463893.121 7
  88413419.12945        47.000          31.800
  25090834.680                                                   131853229.996 4
                        29.900
  20335534.484                    20335543.816                   106863934.151 8
  83270690.111 8        51.300          50.700
  22434567.867                    22434574.680    22434574.676   117894425.783 7
  91865845.193 6        44.800          41.600
  23423104.773                    23423114.984                   123089224.890 6
  95913765.232 7        41.700          43.500
  20639300.734                    20639306.082    20639306.078   108460369.357 8
  84514549.978 8        51.900          49.300
  23116893.289                    23116898.754    23116898.633   121480067.704 7
  94659835.970 6        43.300          41.800
 14  1  3  0 24  0.0000000  0  9G04G02G14G32G25G29G24G12G31
  23442656.234                                    23442662.281   123191837.330 7
  95993788.50643        43.200          22.800
  23596821.031                                    23596824.676   124002156.282 6
  96625066.08944        41.300          25.700
  21598262.672                                    21598268.602   113499654.859 7
  88441285.42045        47.300          33.100
  25097990.125                                                   131890825.701 4
                        29.100
  20329947.805                    20329957.371                   106834577.753 8
  83247814.994 8        51.400          50.700
