     2.11           OBSERVATION DATA    G (GPS)             RINEX VERSION / TYPE
teqc  2013Mar15                         20140106 12:52:57UTCPGM / RUN BY / DATE
Linux 2.4.20-8|Pentium IV|gcc -static|Linux|486/DX+         COMMENT
   0.033      (antenna height)                              COMMENT
 +55.21279000 (latitude)                                    COMMENT
  -1.68549700 (longitude)                                   COMMENT
0144.425      (elevation)                                   COMMENT
BIT 2 OF LLI FLAGS DATA COLLECTED UNDER A/S CONDITION       COMMENT
MORP (COGO code)                                            COMMENT
MORP                                                        MARKER NAME
13299S001                                                   MARKER NUMBER
Matt King           NCL                                     OBSERVER / AGENCY
4843K3347           TRIMBLE NETR8       4.19                REC # / TYPE / VERS
221                 AOAD/M_T        NONE                    ANT # / TYPE
  3645667.8584  -107277.2886  5215053.4919                  APPROX POSITION XYZ
        0.0330        0.0000        0.0000                  ANTENNA: DELTA H/E/N
     1     1                                                WAVELENGTH FACT L1/2
     8    C1    P1    C2    P2    L1    L2    S1    S2      # / TYPES OF OBSERV
    30.0000                                                 INTERVAL
    16                                                      LEAP SECONDS
Forced Modulo Decimation to 30 seconds                      COMMENT
 SNR is mapped to RINEX snr flag value [0-9]                COMMENT
  L1 & L2: min(max(int(snr_dBHz/6), 0), 9)                  COMMENT
  2014     1     2     0     0    0.0000000     GPS         TIME OF FIRST OBS
                                                            END OF HEADER
 14  1  2  0  0  0.0000000  0  9G02G04G14G25G32G29G24G12G31
  24342977.273                                    24342981.797   127923118.379 7
  99680439.47243        42.600          22.900
  23504023.852                                    23504031.070   123514481.419 6
  96245080.58243        39.600          19.300
  21391561.148                                    21391566.961   112413407.523 7
  87594886.73545        47.700          34.200
  20769064.047                    20769072.852                   109142262.988 8
  85045922.249 8        50.400          49.000
  24846592.742                                                   130569716.601 5
                        30.700
  23561329.688                    23561338.551    23561338.313   123815636.459 7
  96479728.049 6        42.600          40.200
  22395284.055                    22395293.973                   117688033.182 7
  91705011.162 7        44.500          46.200
  20230693.336                    20230699.270    20230699.324   106313014.885 8
  82841373.401 8        51.800          50.800
  24131595.453                    24131600.156    24131600.738   126812347.410 6
  98814873.581 5        38.600          33.700
 14  1  2  0  0 30.0000000  0  9G02G04G14G25G32G29G24G12G31
  24328155.094                                    24328159.148   127845220.797 7
  99619740.08143        42.900          23.000
  23499690.672                                    23499697.949   123491712.052 6
  96227338.21343        39.100          19.600
  21392060.961                                    21392066.891   112416034.483 7
  87596933.70245        47.900          34.100
  20759076.469                    20759085.977                   109089775.225 8
  85005022.663 8        50.700          48.900
  24848290.211                                                   130578639.589 5
                        30.100
  23539776.797                    23539786.246    23539786.066   123702377.808 6
  96391474.630 6        41.100          39.500
  22412622.055                    22412632.617                   117779147.716 7
  91776009.470 7        44.100          46.000
  20235939.094                    20235945.262    20235945.141   106340583.972 8
  82862855.815 8        51.700          51.400
  24112490.828                    24112496.352    24112496.465   126711955.100 6
  98736645.810 5        39.200          34.100
 14  1  2  0  1  0.0000000  0  9G02G04G14G25G32G29G24G12G31
  24313377.805                                    24313381.566   127767567.276 7
  99559230.86044        43.000          25.000
  23495472.602                                    23495479.410   123469543.521 6
  96210064.05843        39.600          18.600
  21392676.805                                    21392682.324   112419270.273 7
  87599455.08645        47.600          33.800
  20749164.492                    20749174.059                   109037689.688 8
  84964436.526 8        50.100          49.300
  24850091.086                                                   130588106.059 5
                        30.700
  23518255.570                    23518263.613    23518263.199   123589281.123 6
  96303347.440 6        41.200          39.900
  22430012.406                    22430022.441                   117870532.695 7
  91847218.513 7        43.000          45.800
  20241269.844                    20241275.719    20241275.832   106368594.286 8
  82884682.029 8        52.300          50.900
  24093406.594                    24093410.887    24093411.234   126611661.112 6
  98658494.632 5        39.100          34.600
 14  1  2  0  1 30.0000000  0  9G02G04G14G25G32G29G24G12G31
  24298647.656                                    24298652.355   127690161.263 7
  99498914.51644        42.700          24.400
  23491368.688                                    23491376.082   123447977.999 6
  96193259.78843        39.500          20.100
  21393408.648                                    21393414.754   112423115.702 8
  87602451.52145        48.000          34.000
  20739330.023                    20739339.004                   108986007.583 8
  84924164.739 8        50.700          49.100
  24851997.461                                                   130598115.815 5
                        30.800
  23496765.641                    23496773.625    23496773.563   123476349.162 6
  96215348.595 6        40.900          40.200
  22447454.023                    22447463.414                   117962186.834 7
  91918637.286 7        43.500          45.600
  20246683.742                    20246689.266    20246689.203   106397045.411 8
  82906851.741 8        51.900          51.100
  24074340.367                    24074345.188    24074345.125   126511467.727 6
  98580421.876 5        39.200          35.100
 14  1  2  0  2  0.0000000  0  9G02G04G14G25G32G29G24G12G31
  24283963.969                                    24283969.488   127613004.519 7
  99438792.37143        42.300          22.800
  23487379.766                                    23487386.633   123427015.748 6
  96176925.59843        39.400          19.000
  21394256.141                                    21394261.777   112427570.014 8
  87605922.41345        48.500          34.400
  20729571.414                    20729580.922                   108934728.967 8
  84884207.377 8        49.900          49.000
  24854004.164                                                   130608667.683 5
                        30.100
  23475306.813                    23475315.383    23475315.320   123363583.985 6
  96127479.715 6        40.300          39.800
  22464945.969                    22464956.238                   118054108.309 7
  91990264.368 7        43.400          45.700
  20252181.508                    20252187.207    20252187.027   106425935.212 8
  82929363.278 8        52.100          50.800
  24055293.063                    24055298.117    24055298.406   126411375.711 6
  98502428.105 5        39.200          34.300
 14  1  2  0  2 30.0000000  0  9G02G04G14G25G32G29G24G12G31
  24269330.789                                    24269335.781   127536101.979 7
  99378868.33643        42.600          22.600
  23483506.984                                    23483513.559   123406659.866 6
  96161063.86343        39.900          19.000
  21395220.203                                    21395225.781   112432635.518 7
  87609869.56445        47.700          33.600
  20719891.313                    20719900.586                   108883856.656 8
  84844566.626 8        49.600          49.200
  24856115.859                                                   130619762.991 5
                        30.300
  23453880.195                    23453889.000    23453888.762   123250990.015 6
  96039744.242 6        40.500          40.300
  22482488.734                    22482498.301                   118146297.278 7
  92062099.894 7        43.400          45.900
  20257762.508                    20257768.852    20257768.555   106455265.101 8
  82952217.748 8        52.300          51.100
  24036266.711                    24036272.117    24036271.879   126311388.797 6
  98424516.231 5        39.100          34.300
 14  1  2  0  3  0.0000000  0  9G02G04G14G25G32G29G24G12G31
  24254744.859                                    24254749.383   127459453.566 7
  99319142.30543        42.000          22.300
  23479747.875                                    23479755.035   123386909.319 6
  96145673.81343        39.600          20.400
  21396299.695                                    21396306.035   112438309.632 7
  87614290.96745        47.800          33.900
  20710287.523                    20710296.387                   108833388.968 8
  84805241.184 8        50.100          49.200
  24858330.063                                                   130631398.747 5
                        30.800
  23432486.977                    23432495.723    23432495.602   123138567.361 6
  95952142.241 6        40.600          40.400
  22500081.578                    22500091.613                   118238750.351 7
  92134141.217 7        43.700          45.300
  20263427.086                    20263432.961    20263432.723   106485031.192 8
  82975412.108 8        52.500          50.800
  24017259.445                    24017264.148    24017264.320   126211506.020 6
  98346685.496 5        39.600          35.200
 14  1  2  0  3 30.0000000  0  9G02G04G14G25G32G29G24G12G31
  24240208.609                                    24240212.957   127383062.034 6
  99259616.46843        41.600          22.600
  23476104.570                                    23476111.965   123367765.060 6
  96130756.22543        40.500          20.100
  21397495.844                                    21397501.188   112444592.462 7
  87619186.68145        47.500          34.300
  20700761.023                    20700769.711                   108783326.550 8
  84766231.527 8        49.800          49.400
  24860646.563                                                   130643574.203 5
                        30.100
  23411126.789                    23411134.891    23411135.297   123026318.909 6
  95864675.974 6        40.200          40.200
  22517725.250                    22517735.109                   118331465.873 7
  92206387.040 7        42.400          44.800
  20269174.125                    20269179.648    20269179.703   106515232.996 8
  82998945.974 8        52.200          50.900
  23998272.195                    23998277.191    23998277.129   126111729.183 6
  98268937.302 5        39.000          35.900
 14  1  2  0  4  0.0000000  0  9G02G04G14G25G32G29G24G12G31
  24225720.844                                    24225726.012   127306931.846 6
  99200294.28043        41.900          22.300
  23472578.063                                    23472585.164   123349230.049 6
  96116313.36843        40.900          20.900
  21398806.695                                    21398812.625   112451485.218 7
  87624557.66945        47.900          33.700
  20691311.641                    20691320.973                   108733671.774 8
  84727539.504 8        50.500          49.300
  24863065.336                                                   130656290.462 5
                        30.300
  23389800.703                    23389808.336    23389808.215   122914248.232 6
  95777348.225 6        41.100          39.800
  22535418.719                    22535428.637                   118424444.380 7
  92278837.794 7        43.300          44.900
  20275004.445                    20275009.676    20275009.496   106545870.321 8
  83022819.220 8        52.500          50.500
  23979306.352                    23979311.172    23979311.227   126012061.370 6
  98191274.060 6        39.800          36.100
 14  1  2  0  4 30.0000000  0  9G02G04G14G25G32G29G24G12G31
  24211283.516                                    24211288.684   127231065.865 6
  99141177.97743        41.400          22.900
  23469166.313                                    23469174.176   123331305.465 6
  96102346.17643        39.800          20.900
  21400234.617                                    21400240.840   112458988.184 7
  87630404.13445        47.800          34.300
  20681940.516                    20681949.730                   108684425.492 8
  84689165.774 8        50.300          49.100
  24865589.617                                                   130669546.674 5
                        32.600
  23368508.930                    23368517.207    23368517.320   122802358.027 6
  95690161.113 6        40.500          39.800
  22553161.789                    22553171.063                   118517684.142 7
  92351492.124 7        43.300          44.300
  20280917.203                    20280923.078    20280922.957   106576942.450 8
  83047031.265 8        52.700          50.500
  23960360.344                    23960366.102    23960365.863   125912504.514 6
  98113697.287 6        39.800          36.400
 14  1  2  0  5  0.0000000  0  9G02G04G14G25G32G29G24G12G31
  24196898.094                                    24196902.266   127155464.400 6
  99082267.78243        40.500          23.200
  23465872.148                                    23465878.664   123313990.033 6
  96088853.63643        40.300          21.300
  21401778.117                                    21401783.930   112467099.019 7
  87636724.26645        46.700          34.400
  20672646.727                    20672655.297                   108635586.146 8
  84651109.146 8        49.100          48.800
  24868213.547                                                   130683340.061 5
                        31.500
  23347251.422                    23347258.996    23347258.992   122690648.698 6
  95603114.947 6        41.400          39.700
  22570953.820                    22570963.797                   118611181.897 7
  92424347.486 7        42.600          44.800
  20286912.430                    20286918.188    20286918.066   106608446.226 8
  83071579.663 8        52.600          50.900
  23941436.742                    23941442.559    23941442.672   125813057.777 6
  98036206.331 6        40.500          36.600
 14  1  2  0  5 30.0000000  0  9G02G04G14G25G32G29G24G12G31
  24182562.477                                    24182566.883   127080132.021 6
  99023567.25843        41.600          23.400
  23462693.359                                    23462700.344   123297286.955 6
  96075838.27943        40.100          22.500
  21403437.438                                    21403443.660   112475819.695 7
  87643519.59545        46.300          33.600
  20663430.953                    20663440.168                   108587156.555 8
  84613371.798 8        49.000          49.200
  24870941.570                                                   130697672.059 5
                        31.800
  23326028.352                    23326036.980    23326036.859   122579124.837 6
  95516213.300 6        40.700          39.900
  22588794.953                    22588804.109                   118704938.220 7
  92497404.325 7        42.500          44.500
  20292989.688                    20292995.504    20292995.383   106640382.540 8
  83096465.102 8        52.300          50.500
  23922533.828                    23922539.938    23922539.875   125713724.917 6
  97958804.095 6        40.400          36.800
 14  1  2  0  6  0.0000000  0  9G02G04G14G25G32G29G24G12G31
  24168278.453                                    24168283.738   127005071.151 6
  98965078.30643        41.400          22.500
  23459631.391                                    23459638.609   123281196.945 6
  96063300.63443        40.000          20.600
  21405213.414                                    21405218.992   112485149.867 7
  87650789.85445        47.300          34.200
  20654293.141                    20654302.238                   108539137.124 8
  84575954.043 8        49.500          49.100
  24873770.719                                                   130712541.414 5
                        33.300
  23304841.727                    23304850.238    23304849.941   122467788.713 6
  95429457.911 6        41.700          40.200
  22606684.859                    22606695.012                   118798951.430 7
  92570661.350 7        43.600          44.500
  20299148.484                    20299154.359    20299154.063   106672749.606 8
  83121686.196 8        52.300          50.700
  23903654.273                    23903659.855    23903659.793   125614507.638 6
  97881491.936 6        40.800          37.400
 14  1  2  0  6 30.0000000  0  9G02G04G14G25G32G29G24G12G31
  24154046.695                                    24154051.219   126930282.915 6
  98906801.78243        41.100          22.600
  23456685.945                                    23456693.398   123265719.675 6
  96051240.42343        39.200          21.300
  21407104.383                                    21407110.020   112495087.720 7
  87658533.64045        47.200          33.400
  20645233.266                    20645242.480                   108491527.036 8
  84538855.274 8        49.600          49.100
  24876703.023                                                   130727946.009 5
                        34.300
  23283691.523                    23283699.684    23283699.738   122356641.062 6
  95342849.408 6        41.200          39.800
  22624623.844                    22624633.703                   118893218.379 7
  92644116.080 7        43.800          44.200
  20305389.609                    20305395.367    20305395.305   106705545.260 8
  83147241.252 8        52.000          51.100
  23884795.672                    23884801.430    23884800.781   125515405.622 6
  97804269.584 6        40.300          36.900
 14  1  2  0  7  0.0000000  0  9G02G04G14G25G32G29G24G12G31
  24139867.734                                    24139872.316   126855770.847 7
  98848740.48143        42.200          22.800
  23453857.742                                    23453865.313   123250856.926 6
  96039659.07243        40.300          20.600
  21409111.023                                    21409117.012   112505634.384 7
  87666751.82445        47.400          33.900
  20636251.859                    20636260.664                   108444327.890 8
  84502076.694 8        49.800          49.500
  24879735.695                                                   130743885.874 5
                        33.700
  23262577.078                    23262584.652    23262585.000   122245685.378 6
  95256390.492 6        41.600          40.400
  22642610.305                    22642619.520                   118987738.961 7
  92717768.451 7        43.800          43.800
  20311711.445                    20311717.438    20311717.609   106738768.841 8
  83173129.758 8        52.500          51.300
  23865958.938                    23865965.340    23865965.219   125416421.598 6
  97727139.167 6        40.400          37.300
 14  1  2  0  7 30.0000000  0  9G02G04G14G25G32G29G24G12G31
  24125741.328                                    24125745.441   126781537.011 6
  98790895.95343        41.600          22.900
  23451146.563                                    23451154.016   123236608.784 6
  96028556.64743        39.200          21.300
  21411234.008                                    21411239.527   112516788.585 7
  87675443.43445        47.400          34.200
  20627348.148                    20627357.422                   108397539.700 8
  84465618.349 8        50.000          49.100
  24882871.180                                                   130760359.563 5
                        34.600
  23241499.813                    23241508.207    23241508.203   122134923.591 7
  95170082.643 6        42.200          40.100
  22660644.656                    22660654.281                   119082510.675 7
  92791616.503 7        43.400          44.100
  20318114.766                    20318121.109    20318120.813   106772418.668 8
  83199350.407 8        52.600          50.800
  23847145.648                    23847151.172    23847151.051   125317556.549 6
  97650101.452 6        40.800          37.900
 14  1  2  0  8  0.0000000  0  9G02G04G14G25G32G29G24G12G31
  24111668.805                                    24111673.797   126707585.329 6
  98733271.30043        41.700          22.800
  23448552.188                                    23448559.699   123222977.745 6
  96017935.07443        38.900          20.600
  21413472.313                                    21413478.066   112528551.513 7
  87684609.35345        47.300          34.200
  20618523.227                    20618531.914                   108351164.428 8
  84429481.755 8        49.900          49.400
  24886107.109                                                   130777367.431 5
                        34.300
  23220459.984                    23220468.613    23220468.609   122024359.412 6
  95083928.782 6        41.700          40.800
  22678727.031                    22678737.125                   119177533.369 7
  92865660.136 7        43.700          44.300
  20324599.586                    20324605.402    20324605.223   106806495.447 8
  83225903.748 8        51.900          51.000
  23828355.375                    23828361.895    23828361.949   125218813.552 6
  97573158.866 6        40.900          38.400
 14  1  2  0  8 30.0000000  0  9G02G04G14G25G32G29G24G12G31
  24097650.820                                    24097655.285   126633916.722 6
  98675867.21243        40.100          22.500
  23446075.063                                    23446083.629   123209962.762 6
  96007793.53443        39.900          19.900
  21415826.508                                    21415831.969   112540921.075 7
  87694247.98245        46.800          33.900
  20609776.477                    20609786.043                   108305201.006 8
  84393666.087 8        49.400          49.200
  24889444.273                                                   130794906.931 5
                        35.000
  23199458.070                    23199466.055    23199466.168   121913993.683 7
  94997929.565 6        42.300          40.200
  22696856.625                    22696865.898                   119272804.368 7
  92939897.239 7        43.600          44.300
  20331164.688                    20331170.621    20331170.559   106840995.625 8
  83252787.002 8        51.900          50.100
  23809589.336                    23809594.625    23809595.031   125120192.489 6
  97496311.287 6        40.600          37.900
 14  1  2  0  9  0.0000000  0  9G02G04G14G25G32G29G24G12G31
  24083686.445                                    24083691.145   126560536.184 6
  98618687.61043        40.400          22.500
  23443716.406                                    23443723.625   123197567.101 6
  95998134.58143        39.400          20.400
  21418295.969                                    21418302.074   112553899.343 7
  87704360.92045        46.800          33.600
  20601109.125                    20601118.281                   108259652.251 8
  84358173.556 8        49.900          48.700
  24892884.336                                                   130812979.268 5
                        34.300
  23178495.000                    23178502.809    23178503.332   121803831.022 6
  94912088.572 6        41.900          40.300
  22715033.320                    22715043.004                   119368323.983 7
  93014328.083 7        43.300          43.600
  20337810.719                    20337817.004    20337816.941   106875920.580 8
  83280001.253 8        52.100          50.000
  23790845.766                    23790851.699    23790851.461   125021697.230 6
  97419561.735 6        41.000          37.900
 14  1  2  0  9 30.0000000  0  9G02G04G14G25G32G29G24G12G31
  24069777.883                                    24069781.703   126487444.727 6
  98561733.26143        39.800          23.900
  23441476.453                                    23441483.262   123185790.355 6
  95988957.86643        38.900          20.600
  21420881.359                                    21420886.938   112567484.809 7
  87714947.00645        46.900          33.600
  20592519.969                    20592529.652                   108214517.632 8
  84323003.722 8        49.100          49.200
  24896423.969                                                   130831582.294 5
                        35.400
  23157569.914                    23157578.602    23157578.422   121693872.792 7
  94826406.882 6        43.000          40.600
  22733256.617                    22733266.945                   119464089.212 7
  93088950.309 7        43.000          44.000
  20344536.797                    20344543.023    20344542.961   106911267.507 8
  83307544.314 8        51.800          49.800
  23772127.359                    23772132.180    23772132.117   124923328.164 6
  97342910.526 6        41.100          38.400
 14  1  2  0 10  0.0000000  0  9G02G04G14G25G32G29G24G12G31
  24055924.258                                    24055928.957   126414645.036 6
  98505006.25043        38.600          22.800
  23439352.461                                    23439359.973   123174632.854 6
  95980263.74043        39.700          21.100
  21423582.016                                    21423587.594   112581676.649 7
  87726005.59245        47.700          33.500
  20584010.344                    20584019.441                   108169797.498 8
  84288156.880 8        49.600          49.300
  24900065.305                                                   130850714.920 5
                        34.200
  23136685.070                    23136693.641    23136693.168   121584121.188 7
  94740886.215 6        43.600          41.200
  22751526.297                    22751536.625                   119560099.340 7
  93163763.354 7        43.100          44.700
  20351343.359                    20351349.352    20351349.113   106947035.446 8
  83335415.435 8        52.100          50.700
  23753431.680                    23753437.906    23753437.375   124825086.621 6
  97266358.668 6        40.500          38.400
 14  1  2  0 10 30.0000000  0  9G02G04G14G25G32G29G24G12G31
  24042126.156                                    24042131.676   126342140.321 6
  98448509.05544        40.700          24.500
  23437347.859                                    23437354.902   123164096.499 6
  95972053.58543        39.900          19.300
  21426397.930                                    21426403.391   112596475.575 7
  87737537.22545        47.900          33.000
  20575579.422                    20575588.578                   108125493.344 8
  84253634.167 8        50.800          49.600
  24903806.719                                                   130870377.128 5
                        35.200
  23115840.180                    23115848.398    23115848.336   121474579.730 7
  94655529.283 6        42.700          40.800
  22769842.398                    22769853.137                   119656353.013 7
  93238766.175 7        42.600          43.900
  20358230.141                    20358236.074    20358236.070   106983223.908 8
  83363614.253 8        52.100          50.900
  23734762.680                    23734767.910    23734767.906   124726975.507 6
  97189908.448 6        41.700          38.100
 14  1  2  0 11  0.0000000  0  9G02G04G14G25G32G29G24G12G31
  24028386.102                                    24028390.684   126269932.717 6
  98392243.41344        40.500          24.700
  23435460.492                                    23435468.004   123154181.334 6
  95964327.50443        40.000          18.600
  21429329.484                                    21429334.828   112611880.568 7
  87749541.11145        47.500          33.500
  20567227.570                    20567237.547                   108081605.270 8
  84219435.674 8        50.700          49.100
  24907648.727                                                   130890567.331 5
                        34.100
  23095035.008                    23095043.578    23095043.281   121365249.979 6
  94570337.330 6        41.900          40.700
  22788206.047                    22788215.379                   119752848.338 7
  93313957.297 7        43.000          43.800
  20365195.883                    20365201.699    20365201.637   107019830.997 8
  83392139.265 8        52.300          50.900
  23716116.953                    23716122.887    23716123.059   124628995.775 6
  97113560.617 6        41.300          38.200
 14  1  2  0 11 30.0000000  0  9G02G04G14G25G32G29G24G12G31
  24014702.602                                    24014707.301   126198023.855 6
  98336210.55043        40.900          22.300
  23433692.477                                    23433699.344   123144887.197 6
  95957085.27543        40.400          20.100
  21432376.289                                    21432381.984   112627890.541 7
  87762016.41045        47.500          33.000
  20558955.383                    20558964.480                   108038133.021 8
  84185561.190 8        50.500          49.000
  24911590.797                                                   130911283.621 5
                        34.600
  23074271.297                    23074279.398    23074279.336   121256133.667 7
  94485311.687 6        42.300          40.500
  22806613.977                    22806624.129                   119849583.222 7
  93389335.098 7        43.000          44.100
  20372241.422                    20372246.418    20372246.590   107056854.947 8
  83420989.105 8        52.600          50.300
  23697498.289                    23697503.813    23697503.457   124531148.416 6
  97037315.928 6        41.800          38.900
 14  1  2  0 12  0.0000000  0  9G02G04G14G25G32G29G24G12G31
  24001075.445                                    24001080.789   126126416.192 6
  98280412.40644        39.900          24.800
  23432042.133                                    23432049.293   123136214.865 6
  95950327.63543        41.300          21.300
  21435537.594                                    21435543.289   112644504.575 7
  87774962.40845        47.900          33.300
  20550761.672                    20550770.945                   107995077.052 8
  84152011.089 8        50.700          49.400
  24915632.258                                                   130932524.855 5
                        34.800
  23053548.039                    23053555.965    23053555.961   121147233.181 7
  94400454.242 6        42.700          40.100
  22825067.297                    22825076.805                   119946556.016 7
  93464898.270 7        42.300          44.100
  20379365.742                    20379371.090    20379371.145   107094293.649 8
  83450162.121 8        52.600          50.300
  23678902.883                    23678908.934    23678908.930   124433434.740 6
  96961175.411 6        41.700          38.900
 14  1  2  0 12 30.0000000  0  9G02G04G14G25G32G29G24G12G31
  23987507.445                                    23987511.969   126055113.600 6
  98224851.98544        41.100          24.100
  23430510.547                                    23430517.414   123128165.906 6
  95944055.74043        41.300          21.100
  21438813.563                                    21438819.961   112661723.742 7
  87788379.93145        47.800          33.400
  20542648.305                    20542657.637                   107952439.033 8
  84118786.677 8        51.100          49.900
  24919774.969                                                   130954291.177 5
                        33.800
  23032866.859                    23032875.254    23032874.898   121038552.017 6
  94315767.715 6        41.700          40.200
  22843565.656                    22843575.750                   120043766.184 7
  93540646.416 7        42.500          43.700
  20386569.336                    20386575.152    20386574.855   107132148.535 8
  83479659.438 8        52.200          49.700
  23660334.977                    23660340.617    23660340.379   124335857.618 6
  96885141.299 6        41.900          38.900
 14  1  2  0 13  0.0000000  0  9G02G04G14G25G32G29G24G12G31
  23973997.508                                    23974002.207   125984118.355 6
  98169531.03144        41.400          24.600
  23429098.242                                    23429104.465   123120741.011 6
  95938270.12343        41.100          20.400
  21442206.078                                    21442211.715   112679547.154 7
  87802268.29545        47.600          33.600
  20534614.367                    20534623.113                   107910219.409 8
  84085888.284 8        51.200          50.000
  24924016.609                                                   130976581.125 5
                        34.100
  23012227.148                    23012235.309    23012235.539   120930092.624 7
  94231253.975 6        42.200          41.000
  22862108.320                    22862119.000                   120141212.095 7
  93616578.257 7        42.300          44.300
  20393851.609                    20393857.309    20393857.246   107170417.343 8
  83509479.287 8        52.300          50.200
  23641792.742                    23641798.207    23641798.086   124238418.800 6
  96809214.969 6        41.100          38.400
 14  1  2  0 13 30.0000000  0  9G02G04G14G25G32G29G24G12G31
  23960546.320                                    23960550.902   125913432.256 6
  98114450.98043        41.200          23.500
  23427803.891                                    23427810.230   123113939.590 6
  95932970.30943        41.700          21.100
  21445712.070                                    21445718.352   112697973.233 7
  87816626.27645        47.300          33.100
  20526659.891                    20526668.813                   107868417.840 8
  84053315.634 8        51.000          49.600
  24928357.586                                                   130999392.824 5
                        34.800
  22991631.016                    22991638.766    22991638.586   120821856.647 7
  94146914.331 6        42.200          41.000
  22880697.000                    22880706.859                   120238891.273 7
  93692691.851 7        42.400          44.400
  20401212.336                    20401218.680    20401218.617   107209097.956 8
  83539620.029 8        51.900          49.500
  23623277.773                    23623283.063    23623283.176   124141118.888 6
  96733396.859 6        41.700          38.300
 14  1  2  0 14  0.0000000  0  9G02G04G14G25G32G29G24G12G31
  23947154.352                                    23947159.402   125843058.902 6
  98059614.62244        41.700          24.000
  23426628.391                                    23426634.848   123107764.026 6
  95928158.18643        41.800          20.900
  21449333.484                                    21449338.945   112717002.971 7
  87831454.61745        47.800          33.100
  20518785.227                    20518793.797                   107827036.229 8
  84021070.219 8        51.200          49.800
  24932797.547                                                   131022726.509 5
                        33.700
  22971077.008                    22971085.461    22971084.988   120713847.547 7
  94062751.482 6        42.200          40.700
  22899328.883                    22899339.152                   120336803.743 7
  93768987.243 7        42.200          44.300
  20408651.125                    20408656.824    20408656.762   107248189.860 8
  83570081.255 8        52.200          50.200
  23604788.016                    23604794.066    23604794.648   124043960.852 6
  96657689.303 6        40.900          38.200
 14  1  2  0 14 30.0000000  0  9G02G04G14G25G32G29G24G12G31
  23933823.156                                    23933827.328   125773000.447 7
  98005023.64444        42.300          25.200
  23425572.359                                    23425578.699   123102213.786 6
  95923833.33043        41.700          20.100
  21453068.977                                    21453075.199   112736635.194 7
  87846752.41645        47.800          33.000
  20510990.250                    20510999.875                   107786074.523 8
  83989152.005 8        51.800          50.200
  24937336.203                                                   131046580.494 5
                        32.800
  22950566.727                    22950575.004    22950575.352   120606067.268 6
  93978766.921 6        41.700          40.400
  22918004.891                    22918015.336                   120434947.420 6
  93845462.794 7        41.900          44.200
  20416167.906                    20416173.898    20416173.836   107287692.035 8
  83600862.164 8        51.700          50.100
  23586327.055                    23586332.813    23586332.926   123946946.132 6
  96582093.425 6        41.000          38.900
 14  1  2  0 15  0.0000000  0  9G02G04G14G25G32G29G24G12G31
  23920550.938                                    23920556.867   125703260.812 7
  97950681.11644        42.600          24.700
  23424634.984                                    23424642.555   123097291.108 6
  95919997.49343        40.700          19.900
  21456919.688                                    21456926.086   112756870.793 7
  87862520.39345        47.000          33.000
  20503276.133                    20503284.879                   107745534.673 8
  83957562.506 8        51.400          49.700
  24941973.688                                                   131070954.970 5
                        32.400
  22930101.531                    22930109.457    22930109.746   120498519.484 6
  93894963.528 6        41.700          40.900
  22936724.922                    22936735.426                   120533321.879 7
  93922118.177 7        42.000          43.900
  20423763.313                    20423769.188    20423769.125   107327604.845 8
  83631963.069 8        51.900          50.500
  23567893.180                    23567899.230    23567899.227   123850077.639 6
  96506611.498 6        40.000          39.700
 14  1  2  0 15 30.0000000  0  9G02G04G14G25G32G29G24G12G31
  23907341.688                                    23907346.035   125633839.838 7
  97896586.91844        42.300          24.700
  23423817.359                                    23423824.227   123092994.174 6
  95916649.24243        40.500          19.900
  21460885.375                                    21460891.070   112777706.875 7
  87878756.27345        46.500          33.900
  20495641.477                    20495650.281                   107705415.002 8
  83926300.425 8        51.000          49.600
  24946710.219                                                   131095846.458 5
                        32.200
  22909680.023                    22909688.359    22909688.355   120391204.773 6
  93811341.751 6        41.400          40.700
  22955489.047                    22955498.379                   120631923.835 6
  93998950.830 7        41.700          44.700
  20431436.016                    20431441.891    20431441.711   107367924.356 8
  83663380.866 8        51.700          49.900
  23549487.938                    23549493.813    23549493.516   123753354.939 6
  96431243.155 6        40.800          38.900
 14  1  2  0 16  0.0000000  0  9G02G04G14G25G32G29G24G12G31
  23894193.250                                    23894197.480   125564742.137 7
  97842744.62744        42.800          24.800
  23423118.070                                    23423126.285   123089324.936 6
  95913790.10843        40.100          20.900
  21464964.555                                    21464970.250   112799144.264 7
  87895460.70045        47.000          33.200
  20488087.180                    20488096.219                   107665717.588 8
  83895367.367 8        50.900          49.900
  24951544.852                                                   131121255.394 5
                        31.600
  22889303.930                    22889311.855    22889312.027   120284126.945 6
  93727904.539 6        41.700          41.100
  22974295.188                    22974305.047                   120730753.263 6
  94075960.719 7        41.700          44.300
  20439185.578                    20439191.277    20439191.332   107408650.914 8
  83695115.852 8        51.200          49.900
  23531110.664                    23531115.543    23531115.715   123656781.212 6
  96355990.909 6        41.100          38.500
 14  1  2  0 16 30.0000000  0  9G02G04G14G25G32G29G24G12G31
  23881105.898                                    23881109.836   125495968.486 6
  97789154.82644        41.800          26.000
  23422539.680                                    23422547.777   123086282.310 6
  95911419.22943        39.500          21.100
  21469158.102                                    21469163.914   112821180.664 7
  87912631.89345        47.400          33.500
  20480612.602                    20480622.168                   107626441.481 8
  83864762.616 8        50.500          50.400
  24956479.641                                                   131147179.084 5
                        30.800
  22868972.461                    22868980.855    22868980.559   120177286.985 6
  93644652.700 6        41.400          40.400
  22993144.773                    22993154.574                   120829806.677 6
  94153145.157 7        39.900          43.900
  20447012.773                    20447018.824    20447018.762   107449781.452 8
  83727165.621 8        50.900          49.700
  23512761.781                    23512767.305    23512767.301   123560356.927 6
  96280855.120 6        40.800          38.200
 14  1  2  0 17  0.0000000  0  9G02G04G14G25G32G29G24G12G31
  23868080.633                                    23868085.098   125427522.146 7
  97735820.08144        42.500          25.200
  23422079.789                                    23422087.828   123083867.701 6
  95909537.75543        39.700          20.100
  21473464.625                                    21473471.141   112843816.261 7
  87930269.97045        46.700          33.200
  20473219.578                    20473228.383                   107587587.833 8
  83834487.053 8        50.900          50.000
  24961509.945                                                   131173616.841 5
                        32.200
  22848687.500                    22848695.016    22848694.953   120070687.918 7
  93561588.568 6        42.500          40.700
  23012036.336                    23012046.371                   120929083.625 6
  94230503.792 7        39.600          44.500
  20454916.625                    20454922.090    20454922.086   107491315.511 8
  83759529.827 8        50.800          50.500
  23494441.406                    23494447.105    23494447.160   123464084.232 6
  96205837.442 6        41.100          38.900
 14  1  2  0 17 30.0000000  0  9G02G04G14G25G32G29G24G12G31
  23855119.078                                    23855122.840   125359406.273 6
  97682742.84144        41.600          24.300
  23421740.031                                    23421747.836   123082081.788 6
  95908146.09343        40.400          20.100
  21477886.727                                    21477892.598   112867050.891 7
  87948374.82645        46.300          33.000
  20465906.156                    20465916.016                   107549157.753 8
  83804541.531 8        50.200          49.900
  24966639.594                                                   131200568.071 5
                        33.000
  22828448.813                    22828456.855    22828456.441   119964332.918 6
  93478714.632 6        41.600          40.200
  23030970.180                    23030980.215                   121028582.954 6
  94308035.703 7        41.400          43.800
  20462896.508                    20462902.441    20462902.320   107533253.286 8
  83792208.612 8        51.100          50.000
  23476151.094                    23476156.324    23476156.086   123367965.789 6
  96130939.955 6        41.100          39.400
 14  1  2  0 18  0.0000000  0  9G02G04G14G25G32G29G24G12G31
  23842219.391                                    23842224.500   125291622.527 7
  97629924.38244        42.100          25.100
  23421519.859                                    23421528.016   123080924.305 6
  95907244.19643        40.600          20.400
  21482421.672                                    21482427.543   112890883.261 7
  87966945.46045        46.900          32.600
  20458674.109                    20458683.148                   107511151.091 8
  83774925.945 8        50.900          50.600
  24971865.070                                                   131228030.829 5
                        34.200
  22808257.383                    22808264.664    22808265.012   119858223.892 7
  93396032.376 6        43.100          40.000
  23049946.117                    23049956.387                   121128302.679 6
  94385739.349 7        41.300          44.100
  20470953.711                    20470959.586    20470959.582   107575592.305 8
  83825200.065 8        51.900          50.100
  23457889.367                    23457895.125    23457894.711   123272002.535 6
  96056163.390 6        41.200          39.300
 14  1  2  0 18 30.0000000  0  9G02G04G14G25G32G29G24G12G31
  23829384.461                                    23829389.102   125224173.910 7
  97577367.09344        42.200          25.600
  23421419.266                                    23421426.953   123080396.216 6
  95906832.69243        40.800          20.100
  21487071.016                                    21487077.121   112915313.122 7
  87985981.65545        47.000          33.000
  20451522.234                    20451531.391                   107473568.863 8
  83745641.082 8        50.500          50.700
  24977189.547                                                   131256004.506 5
                        34.900
  22788113.195                    22788120.477    22788120.238   119752363.401 7
  93313543.757 6        43.400          40.800
  23068964.789                    23068974.590                   121228241.697 6
  94463613.874 7        40.000          43.900
  20479086.984                    20479093.035    20479092.855   107618331.645 8
  83858503.447 8        51.700          50.000
  23439658.633                    23439663.453    23439663.801   123176196.543 6
  95981509.374 6        41.400          38.700
 14  1  2  0 19  0.0000000  0  9G02G04G14G25G32G29G24G12G31
  23816613.750                                    23816618.098   125157062.431 7
  97525072.48344        42.600          26.000
  23421439.547                                    23421446.648   123080497.220 6
  95906911.41043        40.800          20.600
  21491833.320                                    21491839.250   112940339.424 7
  88005482.62345        46.100          32.700
  20444451.227                    20444460.969                   107436411.149 8
  83716687.014 8        50.800          50.200
  24982609.117                                                   131284487.162 5
                        34.000
  22768016.148                    22768023.137    22768023.016   119646753.302 7
  93231250.240 6        44.300          41.400
  23088023.719                    23088032.934                   121328398.144 6
  94541657.819 7        40.800          43.900
  20487295.578                    20487301.219    20487301.273   107661469.325 8
  83892117.225 8        52.700          50.200
  23421457.500                    23421462.965    23421462.902   123080549.353 6
  95906979.111 6        40.800          38.900
 14  1  2  0 19 30.0000000  0  9G02G04G14G25G32G29G24G12G31
  23803907.625                                    23803911.914   125090290.866 6
  97473042.74344        41.800          24.800
  23421578.656                                    23421585.230   123081228.162 6
  95907480.97843        40.900          21.300
  21496708.750                                    21496715.031   112965961.217 7
  88025447.58445        45.800          32.900
  20437461.023                    20437470.355                   107399678.672 8
  83688064.296 8        50.800          49.800
  24988125.594                                                   131313477.830 5
                        34.400
  22747966.656                    22747974.816    22747974.461   119541396.897 7
  93149154.409 6        42.900          41.100
  23107123.383                    23107133.711                   121428770.932 6
  94619870.333 7        41.800          43.700
  20495580.391                    20495586.090    20495586.086   107705004.811 8
  83926040.984 8        52.100          49.700
  23403286.992                    23403292.574    23403292.336   122985062.895 6
  95832574.091 6        40.800          39.800
 14  1  2  0 20  0.0000000  0  9G02G04G14G25G32G29G24G12G31
  23791265.258                                    23791270.250   125023860.192 7
  97421278.58544        42.000          25.200
  23421837.086                                    23421844.832   123082587.754 6
  95908540.39643        40.800          21.300
  21501697.344                                    21501703.508   112992176.755 7
  88045875.22645        46.200          32.800
  20430552.469                    20430562.328                   107363370.472 8
  83659772.210 8        50.900          50.000
  24993738.914                                                   131342973.718 5
                        33.700
  22727966.164                    22727974.734    22727974.203   119436294.776 7
  93067256.728 6        42.600          41.200
  23126264.727                    23126274.527                   121529357.032 6
  94698249.074 7        41.800          43.500
  20503940.023                    20503946.133    20503946.129   107748935.460 8
  83960272.657 8        52.200          50.300
  23385147.820                    23385153.578    23385152.871   122889737.697 6
  95758294.717 6        41.500          39.700
 14  1  2  0 20 30.0000000  0  9G02G04G14G25G32G29G24G12G31
  23778689.891                                    23778694.766   124957776.008 7
  97369784.45944        42.400          24.900
  23422216.164                                    23422223.500   123084578.863 6
  95910091.94043        41.500          20.600
  21506799.750                                    21506805.563   113018987.566 7
  88066766.70545        46.700          33.300
  20423724.406                    20423733.797                   107327489.942 8
  83631813.368 8        51.100          49.800
  24999446.125                                                   131372976.144 5
                        32.600
  22708015.484                    22708023.762    22708023.406   119331452.171 7
  92985561.253 6        43.400          40.700
  23145446.875                    23145456.852                   121630157.253 6
  94776794.656 7        40.600          43.800
  20512375.250                    20512381.301    20512381.121   107793262.660 8
  83994813.337 8        52.300          50.200
  23367039.203                    23367045.020    23367044.605   122794578.406 6
  95684144.615 6        41.400          39.800
 14  1  2  0 21  0.0000000  0  9G02G04G14G25G32G29G24G12G31
  23766180.297                                    23766185.406   124892037.915 6
  97318559.99144        41.800          26.000
  23422715.336                                    23422722.086   123087199.424 6
  95912133.93143        41.500          21.700
  21512014.328                                    21512020.082   113046390.525 7
  88088119.62045        46.300          32.700
  20416977.688                    20416986.609                   107292034.988 8
  83604186.121 8        50.900          50.100
  25005251.570                                                   131403481.392 5
                        31.500
  22688113.805                    22688121.320    22688121.316   119226869.300 7
  92904068.183 6        43.800          41.700
  23164668.125                    23164678.512                   121731168.081 6
  94855504.359 7        41.800          43.900
  20520885.242                    20520891.000    20520890.879   107837982.875 8
  84029660.265 8        52.200          49.700
  23348962.336                    23348967.566    23348967.387   122699584.301 7
  95610123.238 6        42.500          40.000
 14  1  2  0 21 30.0000000  0  9G02G04G14G25G32G29G24G12G31
  23753737.578                                    23753742.102   124826650.787 7
  97267609.01844        42.800          25.700
  23423333.547                                    23423340.355   123090451.889 6
  95914668.33643        41.600          20.900
  21517341.883                                    21517348.223   113074386.981 7
  88109935.01245        46.500          32.700
  20410312.086                    20410321.301                   107257008.503 8
  83576892.749 8        51.300          50.000
  25011152.555                                                   131434490.572 5
                        31.300
  22668262.914                    22668270.430    22668269.957   119122550.655 7
  92822780.999 6        43.800          41.100
  23183929.602                    23183940.047                   121832390.084 6
  94934378.608 7        41.700          43.900
  20529470.320                    20529476.078    20529476.074   107883096.861 8
  84064814.014 8        52.200          50.300
  23330917.922                    23330923.035    23330923.148   122604759.444 7
  95536233.743 6        42.500          39.900
 14  1  2  0 22  0.0000000  0  9G02G04G14G25G32G29G24G12G31
  23741362.406                                    23741366.871   124761615.174 7
  97216931.96244        43.000          25.400
  23424072.820                                    23424079.395   123094334.620 7
  95917693.86343        42.300          21.500
  21522781.680                                    21522787.609   113102973.765 7
  88132210.42045        45.900          32.800
  20403728.359                    20403737.223                   107222408.667 8
  83549931.836 8        51.800          50.200
  25017148.516                                                   131465999.862 5
                        30.100
  22648462.164                    22648469.387    22648469.031   119018496.645 7
  92741700.034 6        45.200          41.200
  23203231.461                    23203241.730                   121933820.139 6
  95013414.973 7        41.700          43.800
  20538129.297                    20538134.996    20538135.051   107928601.303 8
  84100272.022 8        52.100          49.500
  23312905.125                    23312911.059    23312910.879   122510103.661 7
  95462475.996 6        43.000          40.200
 14  1  2  0 22 30.0000000  0  9G02G04G14G25G32G29G24G12G31
  23729053.266                                    23729058.023   124696934.139 7
  97166531.17244        43.200          25.400
  23424931.703                                    23424937.984   123098848.365 6
  95921211.07243        41.200          21.800
  21528334.109                                    21528339.922   113132151.363 7
  88154946.19545        46.800          32.100
  20397225.820                    20397234.742                   107188237.092 8
  83523304.631 8        51.600          49.600
  25023238.695                                                   131498009.001 5
                        30.500
  22628712.602                    22628719.707    22628719.762   118914710.744 7
  92660827.987 6        45.000          41.700
  23222572.156                    23222582.602                   122035457.249 7
  95092612.688 7        42.600          43.800
  20546862.633                    20546869.035    20546868.797   107974496.198 8
  84136034.286 8        51.700          49.900
  23294924.984                    23294931.270    23294931.266   122415619.886 7
  95388852.280 6        42.800          40.800
 14  1  2  0 23  0.0000000  0  9G02G04G14G25G32G29G24G12G31
  23716813.117                                    23716817.230   124632609.378 7
  97116408.00144        43.000          26.700
  23425910.289                                    23425916.863   123103992.263 6
  95925219.32743        41.700          21.300
  21533998.531                                    21534004.578   113161917.473 7
  88178140.54445        46.700          32.700
  20390804.406                    20390813.504                   107154493.079 8
  83497010.581 8        51.900          49.400
  25029425.344                                                   131530515.384 4
                        29.900
  22609013.508                    22609021.141    22609021.195   118811194.208 7
  92580165.818 7        44.500          42.500
  23241952.539                    23241962.457                   122137298.837 6
  95171969.730 7        41.600          43.800
  20555669.789                    20555675.840    20555675.836   108020778.570 8
  84172098.475 8        51.700          49.900
  23276978.695                    23276984.453    23276983.980   122321308.565 7
  95315362.943 6        42.800          41.100
 14  1  2  0 23 30.0000000  0  9G02G04G14G25G32G29G24G12G31
  23704640.227                                    23704645.453   124568644.339 7
  97066565.14444        42.800          25.200
  23427009.203                                    23427016.070   123109767.855 6
  95929719.78143        40.900          19.600
  21539774.914                                    21539781.195   113192272.798 7
  88201794.00945        47.000          32.900
  20384464.875                    20384473.621                   107121178.543 8
  83471051.219 8        52.100          50.200
  25035706.313                                                   131563518.958 4
                        28.000
  22589367.156                    22589373.910    22589374.258   118707950.768 7
  92499716.442 6        45.100          41.900
  23261370.383                    23261381.063                   122239344.666 7
  95251485.926 7        42.100          44.400
  20564550.883                    20564556.875    20564556.871   108067448.994 8
  84208465.042 8        51.900          49.800
  23259064.797                    23259070.965    23259071.195   122227173.059 7
  95242010.605 6        42.400          41.100
 14  1  2  0 24  0.0000000  0  9G02G04G14G25G32G29G24G12G31
  23692536.664                                    23692541.949   124505039.383 7
  97017002.88644        42.700          26.000
  23428228.328                                    23428234.199   123116172.817 6
  95934710.68843        41.700          20.600
  21545662.688                                    21545668.441   113223213.939 7
  88225903.96445        46.700          33.900
  20378206.781                    20378215.762                   107088291.591 8
  83445425.028 8        51.700          50.200
  25042081.164                                                   131597016.059 5
                        30.800
